{"type": "FeatureCollection", "features": [{"id": "0", "type": "Feature", "properties": {"ADRESSE": "Kapfsteig 9", "GEBUEHRENP": 0, "ZEIT_BEWIT": 0, "FK_FAHRZEU": 9, "ANZ_PP": 3, "FK_PFOSTEN": 0, "UNT_ERZ": 0, "FOTO": "J8_001.JPG", "BEMERKUNG": null, "EINGEFUEGT": "2015-01-01", "STATUS": 0, "GELOESCHT_": null, "GELOESCHT1": null, "ABSCHLEPP": 0}, "geometry": {"type": "Point", "coordinates": [8.569218908479831, 47.36029288731205]}}, {"id": "1", "type": "Feature", "properties": {"ADRESSE": "Sempacherstrasse 26", "GEBUEHRENP": 0, "ZEIT_BEWIT": 0, "FK_FAHRZEU": 9, "ANZ_PP": 2, "FK_PFOSTEN": 0, "UNT_ERZ": 1, "FOTO": "J8_002.JPG", "BEMERKUNG": null, "EINGEFUEGT": "2015-01-01", "STATUS": 0, "GELOESCHT_": null, "GELOESCHT1": null, "ABSCHLEPP": 0}, "geometry": {"type": "Point", "coordinates": [8.567185129362462, 47.36224631407174]}}, {"id": "2", "type": "Feature", "properties": {"ADRESSE": "Hedwigstrasse 22", "GEBUEHRENP": 0, "ZEIT_BEWIT": 0, "FK_FAHRZEU": 9, "ANZ_PP": 12, "FK_PFOSTEN": 9, "UNT_ERZ": 0, "FOTO": "20191011110635.jpg", "BEMERKUNG": null, "EINGEFUEGT": "2015-01-01", "STATUS": 0, "GELOESCHT_": null, "GELOESCHT1": null, "ABSCHLEPP": 0}, "geometry": {"type": "Point", "coordinates": [8.564365148759894, 47.360951948861455]}}, {"id": "3", "type": "Feature", "properties": {"ADRESSE": "Hofackerstrasse 23", "GEBUEHRENP": 0, "ZEIT_BEWIT": 0, "FK_FAHRZEU": 9, "ANZ_PP": 3, "FK_PFOSTEN": 0, "UNT_ERZ": 1, "FOTO": "20191011111102.jpg", "BEMERKUNG": null, "EINGEFUEGT": "2015-01-01", "STATUS": 0, "GELOESCHT_": null, "GELOESCHT1": null, "ABSCHLEPP": 0}, "geometry": {"type": "Point", "coordinates": [8.563541172434256, 47.3613153973455]}}, {"id": "4", "type": "Feature", "properties": {"ADRESSE": "Witikonerstrasse 289", "GEBUEHRENP": 0, "ZEIT_BEWIT": 0, "FK_FAHRZEU": 1, "ANZ_PP": 15, "FK_PFOSTEN": 7, "UNT_ERZ": 0, "FOTO": "20190605090246.jpg", "BEMERKUNG": null, "EINGEFUEGT": "2015-01-01", "STATUS": 0, "GELOESCHT_": null, "GELOESCHT1": null, "ABSCHLEPP": 0}, "geometry": {"type": "Point", "coordinates": [8.586121675947668, 47.358396556047985]}}, {"id": "5", "type": "Feature", "properties": {"ADRESSE": "Forchstrasse 318", "GEBUEHRENP": 0, "ZEIT_BEWIT": 0, "FK_FAHRZEU": 9, "ANZ_PP": 10, "FK_PFOSTEN": 1, "UNT_ERZ": 1, "FOTO": "20190523134410.jpg", "BEMERKUNG": null, "EINGEFUEGT": "2015-01-01", "STATUS": 0, "GELOESCHT_": null, "GELOESCHT1": null, "ABSCHLEPP": 0}, "geometry": {"type": "Point", "coordinates": [8.574709979014973, 47.35467976745368]}}, {"id": "6", "type": "Feature", "properties": {"ADRESSE": "Rehalpstrasse 17", "GEBUEHRENP": 0, "ZEIT_BEWIT": 0, "FK_FAHRZEU": 2, "ANZ_PP": 2, "FK_PFOSTEN": 0, "UNT_ERZ": 1, "FOTO": "20190524075255.jpg", "BEMERKUNG": null, "EINGEFUEGT": "2015-01-01", "STATUS": 0, "GELOESCHT_": null, "GELOESCHT1": null, "ABSCHLEPP": 0}, "geometry": {"type": "Point", "coordinates": [8.5791553695388, 47.35292498980986]}}, {"id": "7", "type": "Feature", "properties": {"ADRESSE": "Rehalpstrasse 5", "GEBUEHRENP": 0, "ZEIT_BEWIT": 0, "FK_FAHRZEU": 2, "ANZ_PP": 1, "FK_PFOSTEN": 0, "UNT_ERZ": 1, "FOTO": "20190524075411.jpg", "BEMERKUNG": null, "EINGEFUEGT": "2015-01-01", "STATUS": 0, "GELOESCHT_": null, "GELOESCHT1": null, "ABSCHLEPP": 0}, "geometry": {"type": "Point", "coordinates": [8.578074047281751, 47.352972699642585]}}, {"id": "8", "type": "Feature", "properties": {"ADRESSE": "Badenerstrasse 580", "GEBUEHRENP": 0, "ZEIT_BEWIT": 0, "FK_FAHRZEU": 2, "ANZ_PP": 8, "FK_PFOSTEN": 0, "UNT_ERZ": 0, "FOTO": null, "BEMERKUNG": null, "EINGEFUEGT": "2019-07-25", "STATUS": 0, "GELOESCHT_": null, "GELOESCHT1": null, "ABSCHLEPP": 0}, "geometry": {"type": "Point", "coordinates": [8.495585490089123, 47.38516554861271]}}, {"id": "9", "type": "Feature", "properties": {"ADRESSE": "Ostb\u00fchlstrasse 15", "GEBUEHRENP": 0, "ZEIT_BEWIT": 0, "FK_FAHRZEU": 9, "ANZ_PP": 16, "FK_PFOSTEN": 1, "UNT_ERZ": 1, "FOTO": "20190718152655.jpg", "BEMERKUNG": null, "EINGEFUEGT": "2015-01-01", "STATUS": 0, "GELOESCHT_": null, "GELOESCHT1": null, "ABSCHLEPP": 0}, "geometry": {"type": "Point", "coordinates": [8.535118091972462, 47.33296480597381]}}, {"id": "10", "type": "Feature", "properties": {"ADRESSE": "Erligatterweg 23a", "GEBUEHRENP": 0, "ZEIT_BEWIT": 0, "FK_FAHRZEU": 9, "ANZ_PP": 5, "FK_PFOSTEN": 1, "UNT_ERZ": 1, "FOTO": "N6_002.JPG", "BEMERKUNG": null, "EINGEFUEGT": "2015-01-01", "STATUS": 0, "GELOESCHT_": null, "GELOESCHT1": null, "ABSCHLEPP": 0}, "geometry": {"type": "Point", "coordinates": [8.532292859351523, 47.33364220060748]}}, {"id": "11", "type": "Feature", "properties": {"ADRESSE": "K\u00fcnzlistrasse 38", "GEBUEHRENP": 0, "ZEIT_BEWIT": 0, "FK_FAHRZEU": 9, "ANZ_PP": 6, "FK_PFOSTEN": 1, "UNT_ERZ": 1, "FOTO": "20191024102202.jpg", "BEMERKUNG": null, "EINGEFUEGT": "2015-01-01", "STATUS": 0, "GELOESCHT_": null, "GELOESCHT1": null, "ABSCHLEPP": 0}, "geometry": {"type": "Point", "coordinates": [8.532830361319066, 47.406669774854464]}}, {"id": "12", "type": "Feature", "properties": {"ADRESSE": "K\u00fcnzlistrasse 35", "GEBUEHRENP": 0, "ZEIT_BEWIT": 0, "FK_FAHRZEU": 9, "ANZ_PP": 6, "FK_PFOSTEN": 1, "UNT_ERZ": 1, "FOTO": "20191024102226.jpg", "BEMERKUNG": null, "EINGEFUEGT": "2015-01-01", "STATUS": 0, "GELOESCHT_": null, "GELOESCHT1": null, "ABSCHLEPP": 0}, "geometry": {"type": "Point", "coordinates": [8.532994642358183, 47.40642451686603]}}, {"id": "13", "type": "Feature", "properties": {"ADRESSE": "Maienstrasse 21", "GEBUEHRENP": 0, "ZEIT_BEWIT": 0, "FK_FAHRZEU": 9, "ANZ_PP": 48, "FK_PFOSTEN": 7, "UNT_ERZ": 1, "FOTO": "20191024100711.jpg", "BEMERKUNG": "Schule K\u00fcgeliloo", "EINGEFUEGT": "2015-01-01", "STATUS": 0, "GELOESCHT_": null, "GELOESCHT1": null, "ABSCHLEPP": 0}, "geometry": {"type": "Point", "coordinates": [8.52919110204351, 47.409937730192205]}}, {"id": "14", "type": "Feature", "properties": {"ADRESSE": "R\u00e4ffelstrasse 24", "GEBUEHRENP": 0, "ZEIT_BEWIT": 0, "FK_FAHRZEU": 9, "ANZ_PP": 20, "FK_PFOSTEN": 1, "UNT_ERZ": 0, "FOTO": "20190731112625.jpg", "BEMERKUNG": null, "EINGEFUEGT": "2017-05-15", "STATUS": 0, "GELOESCHT_": null, "GELOESCHT1": null, "ABSCHLEPP": 0}, "geometry": {"type": "Point", "coordinates": [8.513301254201403, 47.3632810083495]}}, {"id": "15", "type": "Feature", "properties": {"ADRESSE": "R\u00e4ffelstrasse 28", "GEBUEHRENP": 0, "ZEIT_BEWIT": 0, "FK_FAHRZEU": 9, "ANZ_PP": 20, "FK_PFOSTEN": 1, "UNT_ERZ": 0, "FOTO": "20190731112502.jpg", "BEMERKUNG": null, "EINGEFUEGT": "2017-05-15", "STATUS": 0, "GELOESCHT_": null, "GELOESCHT1": null, "ABSCHLEPP": 0}, "geometry": {"type": "Point", "coordinates": [8.512509903043481, 47.36308654845317]}}, {"id": "16", "type": "Feature", "properties": {"ADRESSE": "Albulastrasse 55", "GEBUEHRENP": 0, "ZEIT_BEWIT": 0, "FK_FAHRZEU": 9, "ANZ_PP": 8, "FK_PFOSTEN": 0, "UNT_ERZ": 0, "FOTO": "20181011143844.jpg", "BEMERKUNG": null, "EINGEFUEGT": "2018-10-11", "STATUS": 0, "GELOESCHT_": null, "GELOESCHT1": null, "ABSCHLEPP": 0}, "geometry": {"type": "Point", "coordinates": [8.49265796063695, 47.38839130265636]}}, {"id": "17", "type": "Feature", "properties": {"ADRESSE": "M\u00fchlegasse 22", "GEBUEHRENP": 0, "ZEIT_BEWIT": 0, "FK_FAHRZEU": 9, "ANZ_PP": 24, "FK_PFOSTEN": 2, "UNT_ERZ": 1, "FOTO": "20190515073301.jpg", "BEMERKUNG": null, "EINGEFUEGT": "2015-01-01", "STATUS": 0, "GELOESCHT_": null, "GELOESCHT1": null, "ABSCHLEPP": 1}, "geometry": {"type": "Point", "coordinates": [8.54463545441503, 47.37408195444902]}}, {"id": "18", "type": "Feature", "properties": {"ADRESSE": "Ankenweid 18", "GEBUEHRENP": 0, "ZEIT_BEWIT": 0, "FK_FAHRZEU": 9, "ANZ_PP": 8, "FK_PFOSTEN": 0, "UNT_ERZ": 1, "FOTO": "N5_002.JPG", "BEMERKUNG": null, "EINGEFUEGT": "2015-01-01", "STATUS": 0, "GELOESCHT_": null, "GELOESCHT1": null, "ABSCHLEPP": 0}, "geometry": {"type": "Point", "coordinates": [8.515652854228383, 47.32957099753031]}}, {"id": "19", "type": "Feature", "properties": {"ADRESSE": "Forellenweg 9", "GEBUEHRENP": 0, "ZEIT_BEWIT": 0, "FK_FAHRZEU": 9, "ANZ_PP": 12, "FK_PFOSTEN": 1, "UNT_ERZ": 1, "FOTO": "20190723094315.jpg", "BEMERKUNG": null, "EINGEFUEGT": "2015-01-01", "STATUS": 0, "GELOESCHT_": null, "GELOESCHT1": null, "ABSCHLEPP": 0}, "geometry": {"type": "Point", "coordinates": [8.539142654404195, 47.33831782060549]}}, {"id": "20", "type": "Feature", "properties": {"ADRESSE": "Hintermeisterhof 9", "GEBUEHRENP": 0, "ZEIT_BEWIT": 0, "FK_FAHRZEU": 9, "ANZ_PP": 2, "FK_PFOSTEN": 1, "UNT_ERZ": 0, "FOTO": "20190709084356.jpg", "BEMERKUNG": null, "EINGEFUEGT": "2015-01-01", "STATUS": 0, "GELOESCHT_": null, "GELOESCHT1": null, "ABSCHLEPP": 0}, "geometry": {"type": "Point", "coordinates": [8.524015120260655, 47.336848542870825]}}, {"id": "21", "type": "Feature", "properties": {"ADRESSE": "Entlisbergstrasse 40", "GEBUEHRENP": 0, "ZEIT_BEWIT": 0, "FK_FAHRZEU": 9, "ANZ_PP": 6, "FK_PFOSTEN": 1, "UNT_ERZ": 1, "FOTO": "20190709083700.jpg", "BEMERKUNG": null, "EINGEFUEGT": "2015-01-01", "STATUS": 0, "GELOESCHT_": null, "GELOESCHT1": null, "ABSCHLEPP": 0}, "geometry": {"type": "Point", "coordinates": [8.524783835798527, 47.336680351661734]}}, {"id": "22", "type": "Feature", "properties": {"ADRESSE": "Sihlfeldstrasse 10", "GEBUEHRENP": 0, "ZEIT_BEWIT": 0, "FK_FAHRZEU": 9, "ANZ_PP": 10, "FK_PFOSTEN": 0, "UNT_ERZ": 0, "FOTO": "20190729142348.jpg", "BEMERKUNG": null, "EINGEFUEGT": "2019-07-29", "STATUS": 0, "GELOESCHT_": null, "GELOESCHT1": null, "ABSCHLEPP": 0}, "geometry": {"type": "Point", "coordinates": [8.517445821057079, 47.373002449377836]}}, {"id": "23", "type": "Feature", "properties": {"ADRESSE": "Renggerstrasse 66", "GEBUEHRENP": 0, "ZEIT_BEWIT": 0, "FK_FAHRZEU": 9, "ANZ_PP": 10, "FK_PFOSTEN": 1, "UNT_ERZ": 1, "FOTO": "20190722095519.jpg", "BEMERKUNG": null, "EINGEFUEGT": "2015-01-01", "STATUS": 0, "GELOESCHT_": null, "GELOESCHT1": null, "ABSCHLEPP": 0}, "geometry": {"type": "Point", "coordinates": [8.533059922037474, 47.344310392421605]}}, {"id": "24", "type": "Feature", "properties": {"ADRESSE": "Sihlfeldstrasse 10", "GEBUEHRENP": 0, "ZEIT_BEWIT": 0, "FK_FAHRZEU": 9, "ANZ_PP": 8, "FK_PFOSTEN": 0, "UNT_ERZ": 0, "FOTO": "20190729142521.jpg", "BEMERKUNG": null, "EINGEFUEGT": "2019-07-29", "STATUS": 0, "GELOESCHT_": null, "GELOESCHT1": null, "ABSCHLEPP": 0}, "geometry": {"type": "Point", "coordinates": [8.517310737417079, 47.37308913813107]}}, {"id": "25", "type": "Feature", "properties": {"ADRESSE": "Bellariarain 5", "GEBUEHRENP": 0, "ZEIT_BEWIT": 0, "FK_FAHRZEU": 9, "ANZ_PP": 6, "FK_PFOSTEN": 0, "UNT_ERZ": 1, "FOTO": "L6_001.JPG", "BEMERKUNG": null, "EINGEFUEGT": "2015-01-01", "STATUS": 0, "GELOESCHT_": null, "GELOESCHT1": null, "ABSCHLEPP": 0}, "geometry": {"type": "Point", "coordinates": [8.530592042927207, 47.35014620821691]}}, {"id": "26", "type": "Feature", "properties": {"ADRESSE": "Haumesserstrasse 13", "GEBUEHRENP": 0, "ZEIT_BEWIT": 0, "FK_FAHRZEU": 9, "ANZ_PP": 2, "FK_PFOSTEN": 1, "UNT_ERZ": 1, "FOTO": "L6_002.JPG", "BEMERKUNG": null, "EINGEFUEGT": "2015-01-01", "STATUS": 0, "GELOESCHT_": null, "GELOESCHT1": null, "ABSCHLEPP": 0}, "geometry": {"type": "Point", "coordinates": [8.531671961177674, 47.3486705912918]}}, {"id": "27", "type": "Feature", "properties": {"ADRESSE": "Rieterstrasse 116", "GEBUEHRENP": 0, "ZEIT_BEWIT": 0, "FK_FAHRZEU": 9, "ANZ_PP": 8, "FK_PFOSTEN": 0, "UNT_ERZ": 1, "FOTO": "20190708112423.jpg", "BEMERKUNG": null, "EINGEFUEGT": "2015-01-01", "STATUS": 0, "GELOESCHT_": null, "GELOESCHT1": null, "ABSCHLEPP": 0}, "geometry": {"type": "Point", "coordinates": [8.526675806272404, 47.352436275447566]}}, {"id": "28", "type": "Feature", "properties": {"ADRESSE": "Rieterstrasse 120", "GEBUEHRENP": 0, "ZEIT_BEWIT": 0, "FK_FAHRZEU": 9, "ANZ_PP": 4, "FK_PFOSTEN": 0, "UNT_ERZ": 1, "FOTO": "20190708112539.jpg", "BEMERKUNG": null, "EINGEFUEGT": "2015-01-01", "STATUS": 0, "GELOESCHT_": null, "GELOESCHT1": null, "ABSCHLEPP": 0}, "geometry": {"type": "Point", "coordinates": [8.526816417079319, 47.35204690004381]}}, {"id": "29", "type": "Feature", "properties": {"ADRESSE": "H\u00fcgelstrasse 35", "GEBUEHRENP": 0, "ZEIT_BEWIT": 0, "FK_FAHRZEU": 9, "ANZ_PP": 3, "FK_PFOSTEN": 0, "UNT_ERZ": 1, "FOTO": "20190619113709.jpg", "BEMERKUNG": null, "EINGEFUEGT": "2015-01-01", "STATUS": 0, "GELOESCHT_": null, "GELOESCHT1": null, "ABSCHLEPP": 0}, "geometry": {"type": "Point", "coordinates": [8.525619383632266, 47.35511459021396]}}, {"id": "30", "type": "Feature", "properties": {"ADRESSE": "Albulastrasse 55", "GEBUEHRENP": 0, "ZEIT_BEWIT": 0, "FK_FAHRZEU": 9, "ANZ_PP": 16, "FK_PFOSTEN": 0, "UNT_ERZ": 0, "FOTO": "20181011143749.jpg", "BEMERKUNG": null, "EINGEFUEGT": "2018-10-11", "STATUS": 0, "GELOESCHT_": null, "GELOESCHT1": null, "ABSCHLEPP": 0}, "geometry": {"type": "Point", "coordinates": [8.492353285686448, 47.38852654592214]}}, {"id": "31", "type": "Feature", "properties": {"ADRESSE": "Josefstrasse 218", "GEBUEHRENP": 0, "ZEIT_BEWIT": 0, "FK_FAHRZEU": 9, "ANZ_PP": 14, "FK_PFOSTEN": 1, "UNT_ERZ": 0, "FOTO": "20190920111421.jpg", "BEMERKUNG": null, "EINGEFUEGT": "2019-09-20", "STATUS": 0, "GELOESCHT_": null, "GELOESCHT1": null, "ABSCHLEPP": 0}, "geometry": {"type": "Point", "coordinates": [8.52255151574885, 47.38767031455547]}}, {"id": "32", "type": "Feature", "properties": {"ADRESSE": "Hegianwandweg 127a", "GEBUEHRENP": 0, "ZEIT_BEWIT": 0, "FK_FAHRZEU": 1, "ANZ_PP": 10, "FK_PFOSTEN": 7, "UNT_ERZ": 0, "FOTO": null, "BEMERKUNG": null, "EINGEFUEGT": "2020-01-14", "STATUS": 0, "GELOESCHT_": null, "GELOESCHT1": null, "ABSCHLEPP": 0}, "geometry": {"type": "Point", "coordinates": [8.506825668581579, 47.354299490874766]}}, {"id": "33", "type": "Feature", "properties": {"ADRESSE": "Stadthausquai 17", "GEBUEHRENP": 0, "ZEIT_BEWIT": 0, "FK_FAHRZEU": 9, "ANZ_PP": 14, "FK_PFOSTEN": 1, "UNT_ERZ": 1, "FOTO": "20190424092334.jpg", "BEMERKUNG": null, "EINGEFUEGT": "2015-01-01", "STATUS": 0, "GELOESCHT_": null, "GELOESCHT1": null, "ABSCHLEPP": 1}, "geometry": {"type": "Point", "coordinates": [8.541624516177043, 47.36918526055146]}}, {"id": "34", "type": "Feature", "properties": {"ADRESSE": "Stadthausquai 17", "GEBUEHRENP": 0, "ZEIT_BEWIT": 0, "FK_FAHRZEU": 9, "ANZ_PP": 8, "FK_PFOSTEN": 1, "UNT_ERZ": 1, "FOTO": "20190424092238.jpg", "BEMERKUNG": null, "EINGEFUEGT": "2015-01-01", "STATUS": 0, "GELOESCHT_": null, "GELOESCHT1": null, "ABSCHLEPP": 0}, "geometry": {"type": "Point", "coordinates": [8.541583857021903, 47.36912522834999]}}, {"id": "35", "type": "Feature", "properties": {"ADRESSE": "M\u00fcnsterhof 9", "GEBUEHRENP": 0, "ZEIT_BEWIT": 0, "FK_FAHRZEU": 9, "ANZ_PP": 10, "FK_PFOSTEN": 2, "UNT_ERZ": 1, "FOTO": "20190417150110.jpg", "BEMERKUNG": null, "EINGEFUEGT": "2015-01-01", "STATUS": 0, "GELOESCHT_": null, "GELOESCHT1": null, "ABSCHLEPP": 0}, "geometry": {"type": "Point", "coordinates": [8.540550594686952, 47.370214176675454]}}, {"id": "36", "type": "Feature", "properties": {"ADRESSE": "Fraum\u00fcnsterstrasse 29", "GEBUEHRENP": 0, "ZEIT_BEWIT": 0, "FK_FAHRZEU": 9, "ANZ_PP": 14, "FK_PFOSTEN": 2, "UNT_ERZ": 1, "FOTO": "20190424091326.jpg", "BEMERKUNG": null, "EINGEFUEGT": "2015-01-01", "STATUS": 0, "GELOESCHT_": null, "GELOESCHT1": null, "ABSCHLEPP": 0}, "geometry": {"type": "Point", "coordinates": [8.540698288670132, 47.36969507836763]}}, {"id": "37", "type": "Feature", "properties": {"ADRESSE": "Fraum\u00fcnsterstrasse 9", "GEBUEHRENP": 0, "ZEIT_BEWIT": 0, "FK_FAHRZEU": 9, "ANZ_PP": 8, "FK_PFOSTEN": 2, "UNT_ERZ": 0, "FOTO": "20190424093338.jpg", "BEMERKUNG": null, "EINGEFUEGT": "2015-01-01", "STATUS": 0, "GELOESCHT_": null, "GELOESCHT1": null, "ABSCHLEPP": 0}, "geometry": {"type": "Point", "coordinates": [8.54101766765601, 47.36819884321688]}}, {"id": "38", "type": "Feature", "properties": {"ADRESSE": "Utoquai 2b", "GEBUEHRENP": 0, "ZEIT_BEWIT": 0, "FK_FAHRZEU": 9, "ANZ_PP": 14, "FK_PFOSTEN": 1, "UNT_ERZ": 1, "FOTO": "20190515145104.jpg", "BEMERKUNG": "vis a vis Terrasse", "EINGEFUEGT": "2015-01-01", "STATUS": 0, "GELOESCHT_": null, "GELOESCHT1": null, "ABSCHLEPP": 0}, "geometry": {"type": "Point", "coordinates": [8.544023365892112, 47.36780587426517]}}, {"id": "39", "type": "Feature", "properties": {"ADRESSE": "Limmatquai 7", "GEBUEHRENP": 0, "ZEIT_BEWIT": 0, "FK_FAHRZEU": 9, "ANZ_PP": 38, "FK_PFOSTEN": 1, "UNT_ERZ": 1, "FOTO": "20190515145241.jpg", "BEMERKUNG": "Spitz Utoquai", "EINGEFUEGT": "2015-01-01", "STATUS": 0, "GELOESCHT_": null, "GELOESCHT1": null, "ABSCHLEPP": 1}, "geometry": {"type": "Point", "coordinates": [8.543923378295405, 47.36846627574682]}}, {"id": "40", "type": "Feature", "properties": {"ADRESSE": "Schiffl\u00e4nde 7", "GEBUEHRENP": 0, "ZEIT_BEWIT": 0, "FK_FAHRZEU": 9, "ANZ_PP": 10, "FK_PFOSTEN": 2, "UNT_ERZ": 1, "FOTO": "20190515150025.jpg", "BEMERKUNG": null, "EINGEFUEGT": "2015-01-01", "STATUS": 0, "GELOESCHT_": null, "GELOESCHT1": null, "ABSCHLEPP": 0}, "geometry": {"type": "Point", "coordinates": [8.543980286305718, 47.36880666583653]}}, {"id": "41", "type": "Feature", "properties": {"ADRESSE": "Limmatquai 50", "GEBUEHRENP": 0, "ZEIT_BEWIT": 0, "FK_FAHRZEU": 1, "ANZ_PP": 18, "FK_PFOSTEN": 2, "UNT_ERZ": 1, "FOTO": "20190515081757.jpg", "BEMERKUNG": null, "EINGEFUEGT": "2015-01-01", "STATUS": 0, "GELOESCHT_": null, "GELOESCHT1": null, "ABSCHLEPP": 0}, "geometry": {"type": "Point", "coordinates": [8.543001215179007, 47.37123176247471]}}, {"id": "42", "type": "Feature", "properties": {"ADRESSE": "Limmatquai 29", "GEBUEHRENP": 0, "ZEIT_BEWIT": 0, "FK_FAHRZEU": 1, "ANZ_PP": 18, "FK_PFOSTEN": 9, "UNT_ERZ": 1, "FOTO": "20190515145804.jpg", "BEMERKUNG": null, "EINGEFUEGT": "2015-01-01", "STATUS": 0, "GELOESCHT_": null, "GELOESCHT1": null, "ABSCHLEPP": 0}, "geometry": {"type": "Point", "coordinates": [8.543323362070039, 47.369697975836814]}}, {"id": "43", "type": "Feature", "properties": {"ADRESSE": "Krebsgasse 10", "GEBUEHRENP": 0, "ZEIT_BEWIT": 0, "FK_FAHRZEU": 1, "ANZ_PP": 7, "FK_PFOSTEN": 7, "UNT_ERZ": 1, "FOTO": "20190515081930.jpg", "BEMERKUNG": null, "EINGEFUEGT": "2015-01-01", "STATUS": 0, "GELOESCHT_": null, "GELOESCHT1": null, "ABSCHLEPP": 0}, "geometry": {"type": "Point", "coordinates": [8.543634502448903, 47.37164094003023]}}, {"id": "44", "type": "Feature", "properties": {"ADRESSE": "Krebsgasse 4", "GEBUEHRENP": 0, "ZEIT_BEWIT": 0, "FK_FAHRZEU": 1, "ANZ_PP": 5, "FK_PFOSTEN": 7, "UNT_ERZ": 1, "FOTO": "I6_042.JPG", "BEMERKUNG": null, "EINGEFUEGT": "2015-01-01", "STATUS": 0, "GELOESCHT_": null, "GELOESCHT1": null, "ABSCHLEPP": 0}, "geometry": {"type": "Point", "coordinates": [8.543422907460748, 47.37155909329256]}}, {"id": "45", "type": "Feature", "properties": {"ADRESSE": "N\u00fcschelerstrasse 35", "GEBUEHRENP": 0, "ZEIT_BEWIT": 0, "FK_FAHRZEU": 9, "ANZ_PP": 4, "FK_PFOSTEN": 0, "UNT_ERZ": 1, "FOTO": "20190417110147.jpg", "BEMERKUNG": null, "EINGEFUEGT": "2015-01-01", "STATUS": 0, "GELOESCHT_": null, "GELOESCHT1": null, "ABSCHLEPP": 0}, "geometry": {"type": "Point", "coordinates": [8.53542260094696, 47.37283400391123]}}, {"id": "46", "type": "Feature", "properties": {"ADRESSE": "L\u00f6wenstrasse 7", "GEBUEHRENP": 0, "ZEIT_BEWIT": 0, "FK_FAHRZEU": 9, "ANZ_PP": 11, "FK_PFOSTEN": 2, "UNT_ERZ": 1, "FOTO": "20190417105231.jpg", "BEMERKUNG": null, "EINGEFUEGT": "2015-01-01", "STATUS": 0, "GELOESCHT_": null, "GELOESCHT1": null, "ABSCHLEPP": 0}, "geometry": {"type": "Point", "coordinates": [8.534644312447055, 47.37333128458825]}}, {"id": "47", "type": "Feature", "properties": {"ADRESSE": "Wasserwerkstrasse 131", "GEBUEHRENP": 0, "ZEIT_BEWIT": 0, "FK_FAHRZEU": 1, "ANZ_PP": 40, "FK_PFOSTEN": 7, "UNT_ERZ": 1, "FOTO": "20190614095842.jpg", "BEMERKUNG": null, "EINGEFUEGT": "2015-01-01", "STATUS": 0, "GELOESCHT_": null, "GELOESCHT1": null, "ABSCHLEPP": 0}, "geometry": {"type": "Point", "coordinates": [8.52979213255741, 47.38937557707292]}}, {"id": "48", "type": "Feature", "properties": {"ADRESSE": "Rosengartenstrasse 68", "GEBUEHRENP": 0, "ZEIT_BEWIT": 0, "FK_FAHRZEU": 9, "ANZ_PP": 3, "FK_PFOSTEN": 0, "UNT_ERZ": 1, "FOTO": "20191101150045.jpg", "BEMERKUNG": null, "EINGEFUEGT": "2015-01-01", "STATUS": 0, "GELOESCHT_": null, "GELOESCHT1": null, "ABSCHLEPP": 0}, "geometry": {"type": "Point", "coordinates": [8.53030610359553, 47.39583542031513]}}, {"id": "49", "type": "Feature", "properties": {"ADRESSE": "Wibichstrasse 4", "GEBUEHRENP": 0, "ZEIT_BEWIT": 0, "FK_FAHRZEU": 9, "ANZ_PP": 3, "FK_PFOSTEN": 0, "UNT_ERZ": 1, "FOTO": "20191101145818.jpg", "BEMERKUNG": null, "EINGEFUEGT": "2015-01-01", "STATUS": 0, "GELOESCHT_": null, "GELOESCHT1": null, "ABSCHLEPP": 0}, "geometry": {"type": "Point", "coordinates": [8.531680650525512, 47.396036140716355]}}, {"id": "50", "type": "Feature", "properties": {"ADRESSE": "Rotbuchstrasse 83", "GEBUEHRENP": 0, "ZEIT_BEWIT": 0, "FK_FAHRZEU": 1, "ANZ_PP": 4, "FK_PFOSTEN": 9, "UNT_ERZ": 1, "FOTO": "20191101151527.jpg", "BEMERKUNG": null, "EINGEFUEGT": "2015-01-01", "STATUS": 0, "GELOESCHT_": null, "GELOESCHT1": null, "ABSCHLEPP": 0}, "geometry": {"type": "Point", "coordinates": [8.530550408632907, 47.393150359153765]}}, {"id": "51", "type": "Feature", "properties": {"ADRESSE": "R\u00f6schibachstrasse 81", "GEBUEHRENP": 0, "ZEIT_BEWIT": 0, "FK_FAHRZEU": 9, "ANZ_PP": 6, "FK_PFOSTEN": 2, "UNT_ERZ": 0, "FOTO": "20191101151138.jpg", "BEMERKUNG": null, "EINGEFUEGT": "2015-01-01", "STATUS": 0, "GELOESCHT_": null, "GELOESCHT1": null, "ABSCHLEPP": 0}, "geometry": {"type": "Point", "coordinates": [8.529122012956162, 47.39347188423121]}}, {"id": "52", "type": "Feature", "properties": {"ADRESSE": "Rousseaustrasse 102", "GEBUEHRENP": 0, "ZEIT_BEWIT": 0, "FK_FAHRZEU": 9, "ANZ_PP": 10, "FK_PFOSTEN": 0, "UNT_ERZ": 1, "FOTO": "20191101151628.jpg", "BEMERKUNG": null, "EINGEFUEGT": "2015-01-01", "STATUS": 0, "GELOESCHT_": null, "GELOESCHT1": null, "ABSCHLEPP": 0}, "geometry": {"type": "Point", "coordinates": [8.529984412793965, 47.39281465791576]}}, {"id": "53", "type": "Feature", "properties": {"ADRESSE": "Rousseaustrasse 97", "GEBUEHRENP": 0, "ZEIT_BEWIT": 0, "FK_FAHRZEU": 9, "ANZ_PP": 16, "FK_PFOSTEN": 2, "UNT_ERZ": 1, "FOTO": "20191101151735.jpg", "BEMERKUNG": null, "EINGEFUEGT": "2015-01-01", "STATUS": 0, "GELOESCHT_": null, "GELOESCHT1": null, "ABSCHLEPP": 0}, "geometry": {"type": "Point", "coordinates": [8.529937357569052, 47.39221232431852]}}, {"id": "54", "type": "Feature", "properties": {"ADRESSE": "K\u00fcnzlistrasse 21", "GEBUEHRENP": 0, "ZEIT_BEWIT": 0, "FK_FAHRZEU": 9, "ANZ_PP": 6, "FK_PFOSTEN": 1, "UNT_ERZ": 0, "FOTO": "20191024102450.jpg", "BEMERKUNG": null, "EINGEFUEGT": "2019-10-24", "STATUS": 0, "GELOESCHT_": null, "GELOESCHT1": null, "ABSCHLEPP": 0}, "geometry": {"type": "Point", "coordinates": [8.533570951783561, 47.40581425928808]}}, {"id": "55", "type": "Feature", "properties": {"ADRESSE": "Schaffhauserstrasse 15", "GEBUEHRENP": 0, "ZEIT_BEWIT": 0, "FK_FAHRZEU": 9, "ANZ_PP": 4, "FK_PFOSTEN": 0, "UNT_ERZ": 1, "FOTO": "20191106084214.jpg", "BEMERKUNG": null, "EINGEFUEGT": "2015-01-01", "STATUS": 0, "GELOESCHT_": null, "GELOESCHT1": null, "ABSCHLEPP": 0}, "geometry": {"type": "Point", "coordinates": [8.538933662296904, 47.38912118108174]}}, {"id": "56", "type": "Feature", "properties": {"ADRESSE": "R\u00f6telstrasse 1", "GEBUEHRENP": 0, "ZEIT_BEWIT": 0, "FK_FAHRZEU": 9, "ANZ_PP": 3, "FK_PFOSTEN": 0, "UNT_ERZ": 1, "FOTO": "20191106084149.jpg", "BEMERKUNG": null, "EINGEFUEGT": "2015-01-01", "STATUS": 0, "GELOESCHT_": null, "GELOESCHT1": null, "ABSCHLEPP": 0}, "geometry": {"type": "Point", "coordinates": [8.53877557764125, 47.3894573670323]}}, {"id": "57", "type": "Feature", "properties": {"ADRESSE": "Hofwiesenstrasse 3", "GEBUEHRENP": 0, "ZEIT_BEWIT": 0, "FK_FAHRZEU": 9, "ANZ_PP": 16, "FK_PFOSTEN": 1, "UNT_ERZ": 1, "FOTO": "20191018142826.jpg", "BEMERKUNG": null, "EINGEFUEGT": "2015-01-01", "STATUS": 0, "GELOESCHT_": null, "GELOESCHT1": null, "ABSCHLEPP": 0}, "geometry": {"type": "Point", "coordinates": [8.538300702823818, 47.392028178845905]}}, {"id": "58", "type": "Feature", "properties": {"ADRESSE": "Schaffhauserstrasse 75", "GEBUEHRENP": 0, "ZEIT_BEWIT": 0, "FK_FAHRZEU": 9, "ANZ_PP": 10, "FK_PFOSTEN": 2, "UNT_ERZ": 1, "FOTO": "20191018142659.jpg", "BEMERKUNG": null, "EINGEFUEGT": "2015-01-01", "STATUS": 0, "GELOESCHT_": null, "GELOESCHT1": null, "ABSCHLEPP": 0}, "geometry": {"type": "Point", "coordinates": [8.538840177793917, 47.392647095853086]}}, {"id": "59", "type": "Feature", "properties": {"ADRESSE": "Langmauerstrasse 74", "GEBUEHRENP": 0, "ZEIT_BEWIT": 0, "FK_FAHRZEU": 9, "ANZ_PP": 12, "FK_PFOSTEN": 2, "UNT_ERZ": 1, "FOTO": "20191018141424.jpg", "BEMERKUNG": null, "EINGEFUEGT": "2015-01-01", "STATUS": 0, "GELOESCHT_": null, "GELOESCHT1": null, "ABSCHLEPP": 0}, "geometry": {"type": "Point", "coordinates": [8.543679363739741, 47.392624638497225]}}, {"id": "60", "type": "Feature", "properties": {"ADRESSE": "Langmauerstrasse 58", "GEBUEHRENP": 0, "ZEIT_BEWIT": 0, "FK_FAHRZEU": 9, "ANZ_PP": 8, "FK_PFOSTEN": 1, "UNT_ERZ": 1, "FOTO": "20191018141609.jpg", "BEMERKUNG": null, "EINGEFUEGT": "2015-01-01", "STATUS": 0, "GELOESCHT_": null, "GELOESCHT1": null, "ABSCHLEPP": 0}, "geometry": {"type": "Point", "coordinates": [8.542900297488494, 47.39177353131302]}}, {"id": "61", "type": "Feature", "properties": {"ADRESSE": "St\u00fcssistrasse 66", "GEBUEHRENP": 0, "ZEIT_BEWIT": 0, "FK_FAHRZEU": 1, "ANZ_PP": 15, "FK_PFOSTEN": 0, "UNT_ERZ": 1, "FOTO": "20191018140458.jpg", "BEMERKUNG": null, "EINGEFUEGT": "2015-01-01", "STATUS": 0, "GELOESCHT_": null, "GELOESCHT1": null, "ABSCHLEPP": 0}, "geometry": {"type": "Point", "coordinates": [8.54034305389624, 47.39350350131371]}}, {"id": "62", "type": "Feature", "properties": {"ADRESSE": "St\u00fcssistrasse 74", "GEBUEHRENP": 0, "ZEIT_BEWIT": 0, "FK_FAHRZEU": 9, "ANZ_PP": 8, "FK_PFOSTEN": 2, "UNT_ERZ": 1, "FOTO": "20191018140346.jpg", "BEMERKUNG": null, "EINGEFUEGT": "2015-01-01", "STATUS": 0, "GELOESCHT_": null, "GELOESCHT1": null, "ABSCHLEPP": 0}, "geometry": {"type": "Point", "coordinates": [8.540505978630678, 47.39391242072957]}}, {"id": "63", "type": "Feature", "properties": {"ADRESSE": "St\u00fcssistrasse 53", "GEBUEHRENP": 0, "ZEIT_BEWIT": 0, "FK_FAHRZEU": 9, "ANZ_PP": 10, "FK_PFOSTEN": 1, "UNT_ERZ": 1, "FOTO": "20191018140948.jpg", "BEMERKUNG": null, "EINGEFUEGT": "2015-01-01", "STATUS": 0, "GELOESCHT_": null, "GELOESCHT1": null, "ABSCHLEPP": 0}, "geometry": {"type": "Point", "coordinates": [8.540493621831997, 47.3925097092164]}}, {"id": "64", "type": "Feature", "properties": {"ADRESSE": "Bellerivestrasse 17", "GEBUEHRENP": 0, "ZEIT_BEWIT": 0, "FK_FAHRZEU": 1, "ANZ_PP": 6, "FK_PFOSTEN": 7, "UNT_ERZ": 0, "FOTO": "S3_001.jpg", "BEMERKUNG": null, "EINGEFUEGT": "2017-03-09", "STATUS": 0, "GELOESCHT_": null, "GELOESCHT1": null, "ABSCHLEPP": 0}, "geometry": {"type": "Point", "coordinates": [8.549402674217179, 47.35950483294008]}}, {"id": "65", "type": "Feature", "properties": {"ADRESSE": "Z\u00e4hringerstrasse 47", "GEBUEHRENP": 0, "ZEIT_BEWIT": 0, "FK_FAHRZEU": 9, "ANZ_PP": 20, "FK_PFOSTEN": 2, "UNT_ERZ": 1, "FOTO": "20190515071222.jpg", "BEMERKUNG": null, "EINGEFUEGT": "2017-08-22", "STATUS": 0, "GELOESCHT_": null, "GELOESCHT1": null, "ABSCHLEPP": 0}, "geometry": {"type": "Point", "coordinates": [8.544512746614707, 47.37638678999802]}}, {"id": "66", "type": "Feature", "properties": {"ADRESSE": "Emil-Kl\u00f6ti-Strasse 33", "GEBUEHRENP": 0, "ZEIT_BEWIT": 0, "FK_FAHRZEU": 9, "ANZ_PP": 14, "FK_PFOSTEN": 1, "UNT_ERZ": 0, "FOTO": "20191107151428.jpg", "BEMERKUNG": null, "EINGEFUEGT": "2018-05-30", "STATUS": 0, "GELOESCHT_": null, "GELOESCHT1": null, "ABSCHLEPP": 0}, "geometry": {"type": "Point", "coordinates": [8.512778157018548, 47.398884817887584]}}, {"id": "67", "type": "Feature", "properties": {"ADRESSE": "Hohlstrasse 486", "GEBUEHRENP": 0, "ZEIT_BEWIT": 0, "FK_FAHRZEU": 9, "ANZ_PP": 14, "FK_PFOSTEN": 2, "UNT_ERZ": 0, "FOTO": "20180606080652.jpg", "BEMERKUNG": null, "EINGEFUEGT": "2018-06-06", "STATUS": 0, "GELOESCHT_": null, "GELOESCHT1": null, "ABSCHLEPP": 0}, "geometry": {"type": "Point", "coordinates": [8.494791104877914, 47.38920432456826]}}, {"id": "68", "type": "Feature", "properties": {"ADRESSE": "Hohlstrasse 480", "GEBUEHRENP": 0, "ZEIT_BEWIT": 0, "FK_FAHRZEU": 9, "ANZ_PP": 14, "FK_PFOSTEN": 2, "UNT_ERZ": 0, "FOTO": "20180606080754.jpg", "BEMERKUNG": null, "EINGEFUEGT": "2018-06-06", "STATUS": 0, "GELOESCHT_": null, "GELOESCHT1": null, "ABSCHLEPP": 0}, "geometry": {"type": "Point", "coordinates": [8.49525032135728, 47.38906920921773]}}, {"id": "69", "type": "Feature", "properties": {"ADRESSE": "Mattenhof 37", "GEBUEHRENP": 0, "ZEIT_BEWIT": 0, "FK_FAHRZEU": 1, "ANZ_PP": 4, "FK_PFOSTEN": 1, "UNT_ERZ": 0, "FOTO": "20191017111947.jpg", "BEMERKUNG": null, "EINGEFUEGT": "2018-07-23", "STATUS": 0, "GELOESCHT_": null, "GELOESCHT1": null, "ABSCHLEPP": 0}, "geometry": {"type": "Point", "coordinates": [8.594793558434139, 47.397477747020595]}}, {"id": "70", "type": "Feature", "properties": {"ADRESSE": "Wengistrasse 30", "GEBUEHRENP": 0, "ZEIT_BEWIT": 0, "FK_FAHRZEU": 1, "ANZ_PP": 12, "FK_PFOSTEN": 0, "UNT_ERZ": 0, "FOTO": "20190425095614.jpg", "BEMERKUNG": "je links und rechts einen", "EINGEFUEGT": "2019-04-25", "STATUS": 0, "GELOESCHT_": null, "GELOESCHT1": null, "ABSCHLEPP": 0}, "geometry": {"type": "Point", "coordinates": [8.522202806318846, 47.37571446637166]}}, {"id": "71", "type": "Feature", "properties": {"ADRESSE": "Albisriederstrasse 220", "GEBUEHRENP": 0, "ZEIT_BEWIT": 0, "FK_FAHRZEU": 1, "ANZ_PP": 8, "FK_PFOSTEN": 0, "UNT_ERZ": 0, "FOTO": "20190829082930.jpg", "BEMERKUNG": "beim Schulhaus Uto", "EINGEFUEGT": "2019-08-29", "STATUS": 0, "GELOESCHT_": null, "GELOESCHT1": null, "ABSCHLEPP": 0}, "geometry": {"type": "Point", "coordinates": [8.49578286898292, 47.37930633691623]}}, {"id": "72", "type": "Feature", "properties": {"ADRESSE": "Klosbachstrasse 50", "GEBUEHRENP": 0, "ZEIT_BEWIT": 0, "FK_FAHRZEU": 1, "ANZ_PP": 10, "FK_PFOSTEN": 0, "UNT_ERZ": 0, "FOTO": "20191011131251.jpg", "BEMERKUNG": null, "EINGEFUEGT": "2019-10-11", "STATUS": 0, "GELOESCHT_": null, "GELOESCHT1": null, "ABSCHLEPP": 0}, "geometry": {"type": "Point", "coordinates": [8.55808483224582, 47.366614053880305]}}, {"id": "73", "type": "Feature", "properties": {"ADRESSE": "Plattenstrasse 21", "GEBUEHRENP": 0, "ZEIT_BEWIT": 0, "FK_FAHRZEU": 9, "ANZ_PP": 50, "FK_PFOSTEN": 0, "UNT_ERZ": 0, "FOTO": "20191014103907.jpg", "BEMERKUNG": "um Geb\u00e4ude verteilt auf mehrere", "EINGEFUEGT": "2019-10-14", "STATUS": 0, "GELOESCHT_": null, "GELOESCHT1": null, "ABSCHLEPP": 0}, "geometry": {"type": "Point", "coordinates": [8.553105306250359, 47.37391744122415]}}, {"id": "74", "type": "Feature", "properties": {"ADRESSE": "Sp\u00f6ndlistrasse 18", "GEBUEHRENP": 0, "ZEIT_BEWIT": 0, "FK_FAHRZEU": 9, "ANZ_PP": 10, "FK_PFOSTEN": 0, "UNT_ERZ": 0, "FOTO": "20191014111349.jpg", "BEMERKUNG": null, "EINGEFUEGT": "2019-10-14", "STATUS": 0, "GELOESCHT_": null, "GELOESCHT1": null, "ABSCHLEPP": 0}, "geometry": {"type": "Point", "coordinates": [8.549595426207977, 47.378836592596784]}}, {"id": "75", "type": "Feature", "properties": {"ADRESSE": "K\u00fcnzlistrasse 35", "GEBUEHRENP": 0, "ZEIT_BEWIT": 0, "FK_FAHRZEU": 9, "ANZ_PP": 6, "FK_PFOSTEN": 1, "UNT_ERZ": 0, "FOTO": "20191024102258.jpg", "BEMERKUNG": null, "EINGEFUEGT": "2019-10-24", "STATUS": 0, "GELOESCHT_": null, "GELOESCHT1": null, "ABSCHLEPP": 0}, "geometry": {"type": "Point", "coordinates": [8.533027882671734, 47.406292793063514]}}, {"id": "76", "type": "Feature", "properties": {"ADRESSE": "Flurstrasse 15", "GEBUEHRENP": 0, "ZEIT_BEWIT": 0, "FK_FAHRZEU": 2, "ANZ_PP": 2, "FK_PFOSTEN": 0, "UNT_ERZ": 0, "FOTO": "20191108142619.jpg", "BEMERKUNG": "P2 im Parkhaus Letzipark", "EINGEFUEGT": "2019-11-08", "STATUS": 0, "GELOESCHT_": null, "GELOESCHT1": null, "ABSCHLEPP": 0}, "geometry": {"type": "Point", "coordinates": [8.497329734751325, 47.3871162727644]}}, {"id": "77", "type": "Feature", "properties": {"ADRESSE": "Schreinerstrasse 52", "GEBUEHRENP": 0, "ZEIT_BEWIT": 0, "FK_FAHRZEU": 1, "ANZ_PP": 8, "FK_PFOSTEN": 1, "UNT_ERZ": 1, "FOTO": "20190425095907.jpg", "BEMERKUNG": null, "EINGEFUEGT": "2015-01-01", "STATUS": 0, "GELOESCHT_": null, "GELOESCHT1": null, "ABSCHLEPP": 0}, "geometry": {"type": "Point", "coordinates": [8.522735927876209, 47.37649294377426]}}, {"id": "78", "type": "Feature", "properties": {"ADRESSE": "Schreinerstrasse 43", "GEBUEHRENP": 0, "ZEIT_BEWIT": 0, "FK_FAHRZEU": 9, "ANZ_PP": 18, "FK_PFOSTEN": 2, "UNT_ERZ": 1, "FOTO": "20190425095716.jpg", "BEMERKUNG": null, "EINGEFUEGT": "2015-01-01", "STATUS": 0, "GELOESCHT_": null, "GELOESCHT1": null, "ABSCHLEPP": 0}, "geometry": {"type": "Point", "coordinates": [8.522384748402144, 47.3760712308999]}}, {"id": "79", "type": "Feature", "properties": {"ADRESSE": "Kanzleistrasse 52", "GEBUEHRENP": 0, "ZEIT_BEWIT": 0, "FK_FAHRZEU": 1, "ANZ_PP": 20, "FK_PFOSTEN": 7, "UNT_ERZ": 1, "FOTO": "20190425091413.jpg", "BEMERKUNG": "Schule Kanzlei", "EINGEFUEGT": "2015-01-01", "STATUS": 0, "GELOESCHT_": null, "GELOESCHT1": null, "ABSCHLEPP": 0}, "geometry": {"type": "Point", "coordinates": [8.525849204596314, 47.375200904999744]}}, {"id": "80", "type": "Feature", "properties": {"ADRESSE": "Kanzleistrasse 53", "GEBUEHRENP": 0, "ZEIT_BEWIT": 0, "FK_FAHRZEU": 1, "ANZ_PP": 20, "FK_PFOSTEN": 7, "UNT_ERZ": 1, "FOTO": "20190425093250.jpg", "BEMERKUNG": "Schule Kanzlei", "EINGEFUEGT": "2015-01-01", "STATUS": 0, "GELOESCHT_": null, "GELOESCHT1": null, "ABSCHLEPP": 0}, "geometry": {"type": "Point", "coordinates": [8.525653225075796, 47.37525229449829]}}, {"id": "81", "type": "Feature", "properties": {"ADRESSE": "Seebahnstrasse 155", "GEBUEHRENP": 0, "ZEIT_BEWIT": 0, "FK_FAHRZEU": 9, "ANZ_PP": 24, "FK_PFOSTEN": 2, "UNT_ERZ": 1, "FOTO": "20190729103457.jpg", "BEMERKUNG": null, "EINGEFUEGT": "2015-01-01", "STATUS": 0, "GELOESCHT_": null, "GELOESCHT1": null, "ABSCHLEPP": 0}, "geometry": {"type": "Point", "coordinates": [8.518732360213036, 47.37471234745446]}}, {"id": "82", "type": "Feature", "properties": {"ADRESSE": "Seebahnstrasse 185", "GEBUEHRENP": 0, "ZEIT_BEWIT": 0, "FK_FAHRZEU": 9, "ANZ_PP": 8, "FK_PFOSTEN": 1, "UNT_ERZ": 1, "FOTO": "20190729102846.jpg", "BEMERKUNG": null, "EINGEFUEGT": "2015-01-01", "STATUS": 0, "GELOESCHT_": null, "GELOESCHT1": null, "ABSCHLEPP": 0}, "geometry": {"type": "Point", "coordinates": [8.518109804260565, 47.37636577315671]}}, {"id": "83", "type": "Feature", "properties": {"ADRESSE": "Seebahnstrasse 139", "GEBUEHRENP": 0, "ZEIT_BEWIT": 0, "FK_FAHRZEU": 9, "ANZ_PP": 10, "FK_PFOSTEN": 2, "UNT_ERZ": 1, "FOTO": "20190729104438.jpg", "BEMERKUNG": null, "EINGEFUEGT": "2015-01-01", "STATUS": 0, "GELOESCHT_": null, "GELOESCHT1": null, "ABSCHLEPP": 0}, "geometry": {"type": "Point", "coordinates": [8.519408307812107, 47.373753838746445]}}, {"id": "84", "type": "Feature", "properties": {"ADRESSE": "Sihlfeldstrasse 126", "GEBUEHRENP": 0, "ZEIT_BEWIT": 0, "FK_FAHRZEU": 9, "ANZ_PP": 10, "FK_PFOSTEN": 2, "UNT_ERZ": 0, "FOTO": "20190724105030.jpg", "BEMERKUNG": null, "EINGEFUEGT": "2015-01-01", "STATUS": 0, "GELOESCHT_": null, "GELOESCHT1": null, "ABSCHLEPP": 0}, "geometry": {"type": "Point", "coordinates": [8.516342719790947, 47.378095550630164]}}, {"id": "85", "type": "Feature", "properties": {"ADRESSE": "Sihlfeldstrasse 130", "GEBUEHRENP": 0, "ZEIT_BEWIT": 0, "FK_FAHRZEU": 9, "ANZ_PP": 10, "FK_PFOSTEN": 2, "UNT_ERZ": 1, "FOTO": "20190724104956.jpg", "BEMERKUNG": null, "EINGEFUEGT": "2015-01-01", "STATUS": 0, "GELOESCHT_": null, "GELOESCHT1": null, "ABSCHLEPP": 0}, "geometry": {"type": "Point", "coordinates": [8.516248708841582, 47.378384999231706]}}, {"id": "86", "type": "Feature", "properties": {"ADRESSE": "B\u00fcrglistrasse 26", "GEBUEHRENP": 0, "ZEIT_BEWIT": 0, "FK_FAHRZEU": 9, "ANZ_PP": 3, "FK_PFOSTEN": 0, "UNT_ERZ": 1, "FOTO": "20190611082735.jpg", "BEMERKUNG": null, "EINGEFUEGT": "2015-01-01", "STATUS": 0, "GELOESCHT_": null, "GELOESCHT1": null, "ABSCHLEPP": 0}, "geometry": {"type": "Point", "coordinates": [8.529195043233363, 47.36107612810477]}}, {"id": "87", "type": "Feature", "properties": {"ADRESSE": "Gr\u00fctlistrasse 96", "GEBUEHRENP": 0, "ZEIT_BEWIT": 0, "FK_FAHRZEU": 9, "ANZ_PP": 4, "FK_PFOSTEN": 0, "UNT_ERZ": 1, "FOTO": "J6_003.JPG", "BEMERKUNG": null, "EINGEFUEGT": "2015-01-01", "STATUS": 0, "GELOESCHT_": null, "GELOESCHT1": null, "ABSCHLEPP": 0}, "geometry": {"type": "Point", "coordinates": [8.531985974212589, 47.35898804552943]}}, {"id": "88", "type": "Feature", "properties": {"ADRESSE": "Mythenquai 21", "GEBUEHRENP": 0, "ZEIT_BEWIT": 0, "FK_FAHRZEU": 9, "ANZ_PP": 10, "FK_PFOSTEN": 0, "UNT_ERZ": 1, "FOTO": "20190529094808.jpg", "BEMERKUNG": null, "EINGEFUEGT": "2015-01-01", "STATUS": 0, "GELOESCHT_": null, "GELOESCHT1": null, "ABSCHLEPP": 0}, "geometry": {"type": "Point", "coordinates": [8.535543227657506, 47.361031538777155]}}, {"id": "89", "type": "Feature", "properties": {"ADRESSE": "Mythenquai 10", "GEBUEHRENP": 0, "ZEIT_BEWIT": 0, "FK_FAHRZEU": 9, "ANZ_PP": 9, "FK_PFOSTEN": 1, "UNT_ERZ": 1, "FOTO": "J6_007.JPG", "BEMERKUNG": null, "EINGEFUEGT": "2015-01-01", "STATUS": 0, "GELOESCHT_": null, "GELOESCHT1": null, "ABSCHLEPP": 0}, "geometry": {"type": "Point", "coordinates": [8.535105621119024, 47.36134784497176]}}, {"id": "90", "type": "Feature", "properties": {"ADRESSE": "Breitingerstrasse 7", "GEBUEHRENP": 0, "ZEIT_BEWIT": 0, "FK_FAHRZEU": 9, "ANZ_PP": 15, "FK_PFOSTEN": 1, "UNT_ERZ": 1, "FOTO": "20190529092943.jpg", "BEMERKUNG": null, "EINGEFUEGT": "2015-01-01", "STATUS": 0, "GELOESCHT_": null, "GELOESCHT1": null, "ABSCHLEPP": 0}, "geometry": {"type": "Point", "coordinates": [8.534672130635515, 47.362492558939294]}}, {"id": "91", "type": "Feature", "properties": {"ADRESSE": "Lavaterstrasse 40", "GEBUEHRENP": 0, "ZEIT_BEWIT": 0, "FK_FAHRZEU": 9, "ANZ_PP": 12, "FK_PFOSTEN": 1, "UNT_ERZ": 0, "FOTO": "20190611110634.jpg", "BEMERKUNG": null, "EINGEFUEGT": "2015-01-01", "STATUS": 0, "GELOESCHT_": null, "GELOESCHT1": null, "ABSCHLEPP": 0}, "geometry": {"type": "Point", "coordinates": [8.532193992525006, 47.36313996237816]}}, {"id": "92", "type": "Feature", "properties": {"ADRESSE": "Bederstrasse 2", "GEBUEHRENP": 0, "ZEIT_BEWIT": 0, "FK_FAHRZEU": 9, "ANZ_PP": 14, "FK_PFOSTEN": 2, "UNT_ERZ": 1, "FOTO": "20190529091330.jpg", "BEMERKUNG": null, "EINGEFUEGT": "2015-01-01", "STATUS": 0, "GELOESCHT_": null, "GELOESCHT1": null, "ABSCHLEPP": 0}, "geometry": {"type": "Point", "coordinates": [8.53144381477368, 47.36524538153017]}}, {"id": "93", "type": "Feature", "properties": {"ADRESSE": "Mythenquai 61", "GEBUEHRENP": 0, "ZEIT_BEWIT": 0, "FK_FAHRZEU": 9, "ANZ_PP": 10, "FK_PFOSTEN": 2, "UNT_ERZ": 1, "FOTO": "J6_004.JPG", "BEMERKUNG": null, "EINGEFUEGT": "2015-01-01", "STATUS": 0, "GELOESCHT_": null, "GELOESCHT1": null, "ABSCHLEPP": 0}, "geometry": {"type": "Point", "coordinates": [8.536633573665776, 47.359037380874]}}, {"id": "94", "type": "Feature", "properties": {"ADRESSE": "Lavaterstrasse 64", "GEBUEHRENP": 0, "ZEIT_BEWIT": 0, "FK_FAHRZEU": 9, "ANZ_PP": 16, "FK_PFOSTEN": 7, "UNT_ERZ": 1, "FOTO": "20190611113204.jpg", "BEMERKUNG": null, "EINGEFUEGT": "2015-01-01", "STATUS": 0, "GELOESCHT_": null, "GELOESCHT1": null, "ABSCHLEPP": 0}, "geometry": {"type": "Point", "coordinates": [8.532467439404785, 47.36050831115433]}}, {"id": "95", "type": "Feature", "properties": {"ADRESSE": "Alfred-Escher-Strasse 10", "GEBUEHRENP": 0, "ZEIT_BEWIT": 0, "FK_FAHRZEU": 1, "ANZ_PP": 14, "FK_PFOSTEN": 2, "UNT_ERZ": 1, "FOTO": "20190529092039.jpg", "BEMERKUNG": null, "EINGEFUEGT": "2015-01-01", "STATUS": 0, "GELOESCHT_": null, "GELOESCHT1": null, "ABSCHLEPP": 0}, "geometry": {"type": "Point", "coordinates": [8.532476757960318, 47.36483669475277]}}, {"id": "96", "type": "Feature", "properties": {"ADRESSE": "Gotthardstrasse 66", "GEBUEHRENP": 0, "ZEIT_BEWIT": 0, "FK_FAHRZEU": 1, "ANZ_PP": 8, "FK_PFOSTEN": 2, "UNT_ERZ": 1, "FOTO": "20190529091951.jpg", "BEMERKUNG": null, "EINGEFUEGT": "2015-01-01", "STATUS": 0, "GELOESCHT_": null, "GELOESCHT1": null, "ABSCHLEPP": 0}, "geometry": {"type": "Point", "coordinates": [8.532120841730052, 47.36469917407323]}}, {"id": "97", "type": "Feature", "properties": {"ADRESSE": "Tessinerplatz 10", "GEBUEHRENP": 0, "ZEIT_BEWIT": 0, "FK_FAHRZEU": 9, "ANZ_PP": 25, "FK_PFOSTEN": 2, "UNT_ERZ": 1, "FOTO": "20190529091613.jpg", "BEMERKUNG": null, "EINGEFUEGT": "2015-01-01", "STATUS": 0, "GELOESCHT_": null, "GELOESCHT1": null, "ABSCHLEPP": 0}, "geometry": {"type": "Point", "coordinates": [8.53126850091542, 47.3644045091615]}}, {"id": "98", "type": "Feature", "properties": {"ADRESSE": "Engimattstrasse 4", "GEBUEHRENP": 0, "ZEIT_BEWIT": 0, "FK_FAHRZEU": 9, "ANZ_PP": 8, "FK_PFOSTEN": 1, "UNT_ERZ": 1, "FOTO": "20190619120157.jpg", "BEMERKUNG": null, "EINGEFUEGT": "2015-01-01", "STATUS": 0, "GELOESCHT_": null, "GELOESCHT1": null, "ABSCHLEPP": 0}, "geometry": {"type": "Point", "coordinates": [8.524642259821581, 47.360507254185336]}}, {"id": "99", "type": "Feature", "properties": {"ADRESSE": "Giessh\u00fcbelstrasse 104", "GEBUEHRENP": 0, "ZEIT_BEWIT": 0, "FK_FAHRZEU": 9, "ANZ_PP": 18, "FK_PFOSTEN": 1, "UNT_ERZ": 0, "FOTO": "20190731083238.jpg", "BEMERKUNG": null, "EINGEFUEGT": "2015-01-01", "STATUS": 0, "GELOESCHT_": null, "GELOESCHT1": null, "ABSCHLEPP": 0}, "geometry": {"type": "Point", "coordinates": [8.517477724534466, 47.35855139077735]}}, {"id": "100", "type": "Feature", "properties": {"ADRESSE": "Haldenstrasse 70", "GEBUEHRENP": 0, "ZEIT_BEWIT": 0, "FK_FAHRZEU": 1, "ANZ_PP": 40, "FK_PFOSTEN": 7, "UNT_ERZ": 1, "FOTO": "20190822104519.jpg", "BEMERKUNG": null, "EINGEFUEGT": "2015-01-01", "STATUS": 0, "GELOESCHT_": null, "GELOESCHT1": null, "ABSCHLEPP": 0}, "geometry": {"type": "Point", "coordinates": [8.516536711581818, 47.365287390633945]}}, {"id": "101", "type": "Feature", "properties": {"ADRESSE": "Haldenstrasse 9", "GEBUEHRENP": 0, "ZEIT_BEWIT": 0, "FK_FAHRZEU": 1, "ANZ_PP": 14, "FK_PFOSTEN": 5, "UNT_ERZ": 1, "FOTO": "20190731113934.jpg", "BEMERKUNG": null, "EINGEFUEGT": "2015-01-01", "STATUS": 0, "GELOESCHT_": null, "GELOESCHT1": null, "ABSCHLEPP": 0}, "geometry": {"type": "Point", "coordinates": [8.517866899661431, 47.36299256970938]}}, {"id": "102", "type": "Feature", "properties": {"ADRESSE": "Haldenstrasse 7", "GEBUEHRENP": 0, "ZEIT_BEWIT": 0, "FK_FAHRZEU": 1, "ANZ_PP": 12, "FK_PFOSTEN": 5, "UNT_ERZ": 1, "FOTO": "20190731114119.jpg", "BEMERKUNG": null, "EINGEFUEGT": "2015-01-01", "STATUS": 0, "GELOESCHT_": null, "GELOESCHT1": null, "ABSCHLEPP": 0}, "geometry": {"type": "Point", "coordinates": [8.51833283531435, 47.36287492711953]}}, {"id": "103", "type": "Feature", "properties": {"ADRESSE": "Giblenstrasse 59", "GEBUEHRENP": 0, "ZEIT_BEWIT": 0, "FK_FAHRZEU": 1, "ANZ_PP": 30, "FK_PFOSTEN": 9, "UNT_ERZ": 0, "FOTO": "20191205154713.jpg", "BEMERKUNG": null, "EINGEFUEGT": "2018-02-15", "STATUS": 0, "GELOESCHT_": null, "GELOESCHT1": null, "ABSCHLEPP": 0}, "geometry": {"type": "Point", "coordinates": [8.479963567849133, 47.41251273915861]}}, {"id": "104", "type": "Feature", "properties": {"ADRESSE": "Manessestrasse 92", "GEBUEHRENP": 0, "ZEIT_BEWIT": 0, "FK_FAHRZEU": 9, "ANZ_PP": 20, "FK_PFOSTEN": 1, "UNT_ERZ": 1, "FOTO": "20190731120319.jpg", "BEMERKUNG": null, "EINGEFUEGT": "2015-01-01", "STATUS": 0, "GELOESCHT_": null, "GELOESCHT1": null, "ABSCHLEPP": 0}, "geometry": {"type": "Point", "coordinates": [8.521682884274602, 47.36482153000829]}}, {"id": "105", "type": "Feature", "properties": {"ADRESSE": "Eibenstrasse 4", "GEBUEHRENP": 0, "ZEIT_BEWIT": 0, "FK_FAHRZEU": 9, "ANZ_PP": 4, "FK_PFOSTEN": 0, "UNT_ERZ": 1, "FOTO": "20190731115030.jpg", "BEMERKUNG": null, "EINGEFUEGT": "2015-01-01", "STATUS": 0, "GELOESCHT_": null, "GELOESCHT1": null, "ABSCHLEPP": 0}, "geometry": {"type": "Point", "coordinates": [8.521678897634436, 47.3636685882795]}}, {"id": "106", "type": "Feature", "properties": {"ADRESSE": "Heinrichstrasse 217", "GEBUEHRENP": 0, "ZEIT_BEWIT": 0, "FK_FAHRZEU": 9, "ANZ_PP": 20, "FK_PFOSTEN": 1, "UNT_ERZ": 0, "FOTO": "20190920105128.jpg", "BEMERKUNG": null, "EINGEFUEGT": "2018-05-30", "STATUS": 0, "GELOESCHT_": null, "GELOESCHT1": null, "ABSCHLEPP": 0}, "geometry": {"type": "Point", "coordinates": [8.524203811937939, 47.38741189447693]}}, {"id": "107", "type": "Feature", "properties": {"ADRESSE": "Heinrichstrasse 215", "GEBUEHRENP": 0, "ZEIT_BEWIT": 0, "FK_FAHRZEU": 9, "ANZ_PP": 14, "FK_PFOSTEN": 1, "UNT_ERZ": 0, "FOTO": "20190920105030.jpg", "BEMERKUNG": null, "EINGEFUEGT": "2018-05-30", "STATUS": 0, "GELOESCHT_": null, "GELOESCHT1": null, "ABSCHLEPP": 0}, "geometry": {"type": "Point", "coordinates": [8.524346677359661, 47.387543830398975]}}, {"id": "108", "type": "Feature", "properties": {"ADRESSE": "Heinrichstrasse 213", "GEBUEHRENP": 0, "ZEIT_BEWIT": 0, "FK_FAHRZEU": 9, "ANZ_PP": 18, "FK_PFOSTEN": 1, "UNT_ERZ": 0, "FOTO": "20190920104912.jpg", "BEMERKUNG": null, "EINGEFUEGT": "2018-05-30", "STATUS": 0, "GELOESCHT_": null, "GELOESCHT1": null, "ABSCHLEPP": 0}, "geometry": {"type": "Point", "coordinates": [8.524535361795358, 47.38772293389692]}}, {"id": "109", "type": "Feature", "properties": {"ADRESSE": "Tramstrasse 35", "GEBUEHRENP": 0, "ZEIT_BEWIT": 0, "FK_FAHRZEU": 9, "ANZ_PP": 3, "FK_PFOSTEN": 0, "UNT_ERZ": 0, "FOTO": "20191024151248.jpg", "BEMERKUNG": null, "EINGEFUEGT": "2018-06-19", "STATUS": 0, "GELOESCHT_": null, "GELOESCHT1": null, "ABSCHLEPP": 0}, "geometry": {"type": "Point", "coordinates": [8.54909083816952, 47.40900204972122]}}, {"id": "110", "type": "Feature", "properties": {"ADRESSE": "Allmendstrasse 147", "GEBUEHRENP": 0, "ZEIT_BEWIT": 0, "FK_FAHRZEU": 9, "ANZ_PP": 22, "FK_PFOSTEN": 0, "UNT_ERZ": 0, "FOTO": "20190717105212.jpg", "BEMERKUNG": null, "EINGEFUEGT": "2018-08-03", "STATUS": 0, "GELOESCHT_": null, "GELOESCHT1": null, "ABSCHLEPP": 0}, "geometry": {"type": "Point", "coordinates": [8.519404678479669, 47.33877130252751]}}, {"id": "111", "type": "Feature", "properties": {"ADRESSE": "Klebestrasse 9", "GEBUEHRENP": 0, "ZEIT_BEWIT": 0, "FK_FAHRZEU": 1, "ANZ_PP": 12, "FK_PFOSTEN": 0, "UNT_ERZ": 0, "FOTO": "20190718104624.jpg", "BEMERKUNG": null, "EINGEFUEGT": "2019-07-18", "STATUS": 0, "GELOESCHT_": null, "GELOESCHT1": null, "ABSCHLEPP": 0}, "geometry": {"type": "Point", "coordinates": [8.513995359791648, 47.32581052517029]}}, {"id": "112", "type": "Feature", "properties": {"ADRESSE": "Friedaustrasse 23", "GEBUEHRENP": 0, "ZEIT_BEWIT": 0, "FK_FAHRZEU": 1, "ANZ_PP": 24, "FK_PFOSTEN": 0, "UNT_ERZ": 0, "FOTO": "20190730081042.jpg", "BEMERKUNG": null, "EINGEFUEGT": "2019-07-30", "STATUS": 0, "GELOESCHT_": null, "GELOESCHT1": null, "ABSCHLEPP": 0}, "geometry": {"type": "Point", "coordinates": [8.51092235685643, 47.37729077177476]}}, {"id": "113", "type": "Feature", "properties": {"ADRESSE": "Haldenstrasse 7", "GEBUEHRENP": 0, "ZEIT_BEWIT": 0, "FK_FAHRZEU": 1, "ANZ_PP": 8, "FK_PFOSTEN": 7, "UNT_ERZ": 0, "FOTO": "20190731114205.jpg", "BEMERKUNG": null, "EINGEFUEGT": "2019-07-31", "STATUS": 0, "GELOESCHT_": null, "GELOESCHT1": null, "ABSCHLEPP": 0}, "geometry": {"type": "Point", "coordinates": [8.518316977481861, 47.362843743543316]}}, {"id": "114", "type": "Feature", "properties": {"ADRESSE": "Wiedingstrasse 34", "GEBUEHRENP": 0, "ZEIT_BEWIT": 0, "FK_FAHRZEU": 9, "ANZ_PP": 4, "FK_PFOSTEN": 2, "UNT_ERZ": 0, "FOTO": "20190822110725.jpg", "BEMERKUNG": null, "EINGEFUEGT": "2019-08-22", "STATUS": 0, "GELOESCHT_": null, "GELOESCHT1": null, "ABSCHLEPP": 0}, "geometry": {"type": "Point", "coordinates": [8.518526781869522, 47.367052571698004]}}, {"id": "115", "type": "Feature", "properties": {"ADRESSE": "Winterthurerstrasse 170", "GEBUEHRENP": 0, "ZEIT_BEWIT": 0, "FK_FAHRZEU": 9, "ANZ_PP": 6, "FK_PFOSTEN": 0, "UNT_ERZ": 0, "FOTO": "20191018102305.jpg", "BEMERKUNG": null, "EINGEFUEGT": "2019-10-18", "STATUS": 0, "GELOESCHT_": null, "GELOESCHT1": null, "ABSCHLEPP": 0}, "geometry": {"type": "Point", "coordinates": [8.546833469548611, 47.397250007806825]}}, {"id": "116", "type": "Feature", "properties": {"ADRESSE": "Sihlfeldstrasse 123", "GEBUEHRENP": 0, "ZEIT_BEWIT": 0, "FK_FAHRZEU": 9, "ANZ_PP": 12, "FK_PFOSTEN": 2, "UNT_ERZ": 1, "FOTO": "20190724104837.jpg", "BEMERKUNG": null, "EINGEFUEGT": "2015-01-01", "STATUS": 0, "GELOESCHT_": null, "GELOESCHT1": null, "ABSCHLEPP": 0}, "geometry": {"type": "Point", "coordinates": [8.516155789183705, 47.37793489335012]}}, {"id": "117", "type": "Feature", "properties": {"ADRESSE": "Birmensdorferstrasse 445a", "GEBUEHRENP": 0, "ZEIT_BEWIT": 0, "FK_FAHRZEU": 1, "ANZ_PP": 22, "FK_PFOSTEN": 0, "UNT_ERZ": 0, "FOTO": "20190821101401.jpg", "BEMERKUNG": null, "EINGEFUEGT": "2019-08-21", "STATUS": 0, "GELOESCHT_": null, "GELOESCHT1": null, "ABSCHLEPP": 0}, "geometry": {"type": "Point", "coordinates": [8.500073693581882, 47.36847409910712]}}, {"id": "118", "type": "Feature", "properties": {"ADRESSE": "Sihlfeldstrasse 85", "GEBUEHRENP": 0, "ZEIT_BEWIT": 0, "FK_FAHRZEU": 9, "ANZ_PP": 6, "FK_PFOSTEN": 2, "UNT_ERZ": 1, "FOTO": "20190729102234.jpg", "BEMERKUNG": null, "EINGEFUEGT": "2015-01-01", "STATUS": 0, "GELOESCHT_": null, "GELOESCHT1": null, "ABSCHLEPP": 0}, "geometry": {"type": "Point", "coordinates": [8.516468062842412, 47.376125147573674]}}, {"id": "119", "type": "Feature", "properties": {"ADRESSE": "Sihlfeldstrasse 30", "GEBUEHRENP": 0, "ZEIT_BEWIT": 0, "FK_FAHRZEU": 9, "ANZ_PP": 16, "FK_PFOSTEN": 1, "UNT_ERZ": 1, "FOTO": "20190729143132.jpg", "BEMERKUNG": null, "EINGEFUEGT": "2015-01-01", "STATUS": 0, "GELOESCHT_": null, "GELOESCHT1": null, "ABSCHLEPP": 0}, "geometry": {"type": "Point", "coordinates": [8.517111377380436, 47.374236791969295]}}, {"id": "120", "type": "Feature", "properties": {"ADRESSE": "Sihlhallenstrasse 7", "GEBUEHRENP": 0, "ZEIT_BEWIT": 0, "FK_FAHRZEU": 9, "ANZ_PP": 10, "FK_PFOSTEN": 1, "UNT_ERZ": 1, "FOTO": "20190425162157.jpg", "BEMERKUNG": null, "EINGEFUEGT": "2015-01-01", "STATUS": 0, "GELOESCHT_": null, "GELOESCHT1": null, "ABSCHLEPP": 0}, "geometry": {"type": "Point", "coordinates": [8.527026615235357, 47.37971763314307]}}, {"id": "121", "type": "Feature", "properties": {"ADRESSE": "Sihlhallenstrasse 30", "GEBUEHRENP": 0, "ZEIT_BEWIT": 0, "FK_FAHRZEU": 9, "ANZ_PP": 10, "FK_PFOSTEN": 1, "UNT_ERZ": 1, "FOTO": "20190425162408.jpg", "BEMERKUNG": null, "EINGEFUEGT": "2015-01-01", "STATUS": 0, "GELOESCHT_": null, "GELOESCHT1": null, "ABSCHLEPP": 0}, "geometry": {"type": "Point", "coordinates": [8.526067036894203, 47.38021373664331]}}, {"id": "122", "type": "Feature", "properties": {"ADRESSE": "Stauffacherstrasse 180", "GEBUEHRENP": 0, "ZEIT_BEWIT": 0, "FK_FAHRZEU": 9, "ANZ_PP": 10, "FK_PFOSTEN": 2, "UNT_ERZ": 1, "FOTO": "20190503090140.jpg", "BEMERKUNG": null, "EINGEFUEGT": "2015-01-01", "STATUS": 0, "GELOESCHT_": null, "GELOESCHT1": null, "ABSCHLEPP": 0}, "geometry": {"type": "Point", "coordinates": [8.52061999286274, 47.378299227424336]}}, {"id": "123", "type": "Feature", "properties": {"ADRESSE": "Wengistrasse 2", "GEBUEHRENP": 0, "ZEIT_BEWIT": 0, "FK_FAHRZEU": 9, "ANZ_PP": 15, "FK_PFOSTEN": 1, "UNT_ERZ": 1, "FOTO": "20190425093824.jpg", "BEMERKUNG": "2 Standorte", "EINGEFUEGT": "2015-01-01", "STATUS": 0, "GELOESCHT_": null, "GELOESCHT1": null, "ABSCHLEPP": 0}, "geometry": {"type": "Point", "coordinates": [8.524083896444479, 47.37461214434707]}}, {"id": "124", "type": "Feature", "properties": {"ADRESSE": "Wengistrasse 6", "GEBUEHRENP": 0, "ZEIT_BEWIT": 0, "FK_FAHRZEU": 9, "ANZ_PP": 20, "FK_PFOSTEN": 1, "UNT_ERZ": 1, "FOTO": "20190425094548.jpg", "BEMERKUNG": null, "EINGEFUEGT": "2015-01-01", "STATUS": 0, "GELOESCHT_": null, "GELOESCHT1": null, "ABSCHLEPP": 0}, "geometry": {"type": "Point", "coordinates": [8.523697987235021, 47.374963936634884]}}, {"id": "125", "type": "Feature", "properties": {"ADRESSE": "Zentralstrasse 153", "GEBUEHRENP": 0, "ZEIT_BEWIT": 0, "FK_FAHRZEU": 9, "ANZ_PP": 30, "FK_PFOSTEN": 1, "UNT_ERZ": 1, "FOTO": "20190729152941.jpg", "BEMERKUNG": null, "EINGEFUEGT": "2015-01-01", "STATUS": 0, "GELOESCHT_": null, "GELOESCHT1": null, "ABSCHLEPP": 0}, "geometry": {"type": "Point", "coordinates": [8.514747042982577, 47.37559986783048]}}, {"id": "126", "type": "Feature", "properties": {"ADRESSE": "Zurlindenstrasse 230", "GEBUEHRENP": 0, "ZEIT_BEWIT": 0, "FK_FAHRZEU": 9, "ANZ_PP": 20, "FK_PFOSTEN": 1, "UNT_ERZ": 1, "FOTO": "20190729154457.jpg", "BEMERKUNG": null, "EINGEFUEGT": "2015-01-01", "STATUS": 0, "GELOESCHT_": null, "GELOESCHT1": null, "ABSCHLEPP": 0}, "geometry": {"type": "Point", "coordinates": [8.513383636907111, 47.375379030210816]}}, {"id": "127", "type": "Feature", "properties": {"ADRESSE": "Zurlindenstrasse 218", "GEBUEHRENP": 0, "ZEIT_BEWIT": 0, "FK_FAHRZEU": 9, "ANZ_PP": 8, "FK_PFOSTEN": 1, "UNT_ERZ": 1, "FOTO": "20190729153854.jpg", "BEMERKUNG": null, "EINGEFUEGT": "2015-01-01", "STATUS": 0, "GELOESCHT_": null, "GELOESCHT1": null, "ABSCHLEPP": 0}, "geometry": {"type": "Point", "coordinates": [8.514084255540428, 47.37491423625388]}}, {"id": "128", "type": "Feature", "properties": {"ADRESSE": "Zurlindenstrasse 211", "GEBUEHRENP": 0, "ZEIT_BEWIT": 0, "FK_FAHRZEU": 9, "ANZ_PP": 8, "FK_PFOSTEN": 1, "UNT_ERZ": 0, "FOTO": "20190729151944.jpg", "BEMERKUNG": null, "EINGEFUEGT": "2015-01-01", "STATUS": 0, "GELOESCHT_": null, "GELOESCHT1": null, "ABSCHLEPP": 0}, "geometry": {"type": "Point", "coordinates": [8.514520196662327, 47.37463959514912]}}, {"id": "129", "type": "Feature", "properties": {"ADRESSE": "Idaplatz 8", "GEBUEHRENP": 0, "ZEIT_BEWIT": 0, "FK_FAHRZEU": 9, "ANZ_PP": 10, "FK_PFOSTEN": 1, "UNT_ERZ": 0, "FOTO": "20190729151431.jpg", "BEMERKUNG": null, "EINGEFUEGT": "2015-01-01", "STATUS": 0, "GELOESCHT_": null, "GELOESCHT1": null, "ABSCHLEPP": 0}, "geometry": {"type": "Point", "coordinates": [8.514907427032577, 47.37438165405165]}}, {"id": "130", "type": "Feature", "properties": {"ADRESSE": "Bertastrasse 99", "GEBUEHRENP": 0, "ZEIT_BEWIT": 0, "FK_FAHRZEU": 9, "ANZ_PP": 24, "FK_PFOSTEN": 1, "UNT_ERZ": 1, "FOTO": "20190823095527.jpg", "BEMERKUNG": null, "EINGEFUEGT": "2015-01-01", "STATUS": 0, "GELOESCHT_": null, "GELOESCHT1": null, "ABSCHLEPP": 0}, "geometry": {"type": "Point", "coordinates": [8.510034181037437, 47.37029321182516]}}, {"id": "131", "type": "Feature", "properties": {"ADRESSE": "Birmensdorferstrasse 437a", "GEBUEHRENP": 0, "ZEIT_BEWIT": 0, "FK_FAHRZEU": 1, "ANZ_PP": 24, "FK_PFOSTEN": 0, "UNT_ERZ": 0, "FOTO": "20190821102842.jpg", "BEMERKUNG": null, "EINGEFUEGT": "2019-08-21", "STATUS": 0, "GELOESCHT_": null, "GELOESCHT1": null, "ABSCHLEPP": 0}, "geometry": {"type": "Point", "coordinates": [8.500913065744474, 47.36791539375288]}}, {"id": "132", "type": "Feature", "properties": {"ADRESSE": "Birmensdorferstrasse 430", "GEBUEHRENP": 0, "ZEIT_BEWIT": 0, "FK_FAHRZEU": 9, "ANZ_PP": 14, "FK_PFOSTEN": 1, "UNT_ERZ": 1, "FOTO": "20190821102053.jpg", "BEMERKUNG": null, "EINGEFUEGT": "2015-01-01", "STATUS": 0, "GELOESCHT_": null, "GELOESCHT1": null, "ABSCHLEPP": 0}, "geometry": {"type": "Point", "coordinates": [8.501125779320684, 47.368942632719786]}}, {"id": "133", "type": "Feature", "properties": {"ADRESSE": "Birmensdorferstrasse 495a", "GEBUEHRENP": 0, "ZEIT_BEWIT": 0, "FK_FAHRZEU": 2, "ANZ_PP": 9, "FK_PFOSTEN": 0, "UNT_ERZ": 1, "FOTO": "20190821084537.jpg", "BEMERKUNG": null, "EINGEFUEGT": "2015-01-01", "STATUS": 0, "GELOESCHT_": null, "GELOESCHT1": null, "ABSCHLEPP": 0}, "geometry": {"type": "Point", "coordinates": [8.496645930944435, 47.36610140651536]}}, {"id": "134", "type": "Feature", "properties": {"ADRESSE": "Birmensdorferstrasse 497d", "GEBUEHRENP": 0, "ZEIT_BEWIT": 0, "FK_FAHRZEU": 2, "ANZ_PP": 7, "FK_PFOSTEN": 0, "UNT_ERZ": 1, "FOTO": "20190821084456.jpg", "BEMERKUNG": null, "EINGEFUEGT": "2015-01-01", "STATUS": 0, "GELOESCHT_": null, "GELOESCHT1": null, "ABSCHLEPP": 0}, "geometry": {"type": "Point", "coordinates": [8.49697513165298, 47.36619860476279]}}, {"id": "135", "type": "Feature", "properties": {"ADRESSE": "Himmeristrasse 55", "GEBUEHRENP": 0, "ZEIT_BEWIT": 0, "FK_FAHRZEU": 1, "ANZ_PP": 14, "FK_PFOSTEN": 0, "UNT_ERZ": 1, "FOTO": null, "BEMERKUNG": null, "EINGEFUEGT": "2015-01-01", "STATUS": 0, "GELOESCHT_": null, "GELOESCHT1": null, "ABSCHLEPP": 0}, "geometry": {"type": "Point", "coordinates": [8.535725080714526, 47.41906506127931]}}, {"id": "136", "type": "Feature", "properties": {"ADRESSE": "H\u00f6nggerbergring 68", "GEBUEHRENP": 0, "ZEIT_BEWIT": 0, "FK_FAHRZEU": 1, "ANZ_PP": 34, "FK_PFOSTEN": 7, "UNT_ERZ": 1, "FOTO": "20191206145618.jpg", "BEMERKUNG": "\u00fcberdacht", "EINGEFUEGT": "2015-01-01", "STATUS": 0, "GELOESCHT_": null, "GELOESCHT1": null, "ABSCHLEPP": 0}, "geometry": {"type": "Point", "coordinates": [8.510353451311627, 47.40695413149409]}}, {"id": "137", "type": "Feature", "properties": {"ADRESSE": "H\u00f6nggerbergring 64", "GEBUEHRENP": 0, "ZEIT_BEWIT": 0, "FK_FAHRZEU": 1, "ANZ_PP": 60, "FK_PFOSTEN": 7, "UNT_ERZ": 1, "FOTO": "20191206145752.jpg", "BEMERKUNG": null, "EINGEFUEGT": "2015-01-01", "STATUS": 0, "GELOESCHT_": null, "GELOESCHT1": null, "ABSCHLEPP": 0}, "geometry": {"type": "Point", "coordinates": [8.51086989940749, 47.407444966495895]}}, {"id": "138", "type": "Feature", "properties": {"ADRESSE": "Fierzgasse 30", "GEBUEHRENP": 0, "ZEIT_BEWIT": 0, "FK_FAHRZEU": 9, "ANZ_PP": 10, "FK_PFOSTEN": 1, "UNT_ERZ": 1, "FOTO": "20190423132118.jpg", "BEMERKUNG": null, "EINGEFUEGT": "2015-01-01", "STATUS": 0, "GELOESCHT_": null, "GELOESCHT1": null, "ABSCHLEPP": 0}, "geometry": {"type": "Point", "coordinates": [8.531315619333915, 47.38420541686909]}}, {"id": "139", "type": "Feature", "properties": {"ADRESSE": "Gloriastrasse 28", "GEBUEHRENP": 0, "ZEIT_BEWIT": 0, "FK_FAHRZEU": 1, "ANZ_PP": 12, "FK_PFOSTEN": 0, "UNT_ERZ": 0, "FOTO": "20191014091531.jpg", "BEMERKUNG": null, "EINGEFUEGT": "2019-10-14", "STATUS": 0, "GELOESCHT_": null, "GELOESCHT1": null, "ABSCHLEPP": 0}, "geometry": {"type": "Point", "coordinates": [8.553243806644852, 47.37643044088381]}}, {"id": "140", "type": "Feature", "properties": {"ADRESSE": "F\u00f6rrlibuckstrasse 181", "GEBUEHRENP": 0, "ZEIT_BEWIT": 0, "FK_FAHRZEU": 9, "ANZ_PP": 33, "FK_PFOSTEN": 0, "UNT_ERZ": 0, "FOTO": "20190925111057.jpg", "BEMERKUNG": null, "EINGEFUEGT": "2015-01-01", "STATUS": 0, "GELOESCHT_": null, "GELOESCHT1": null, "ABSCHLEPP": 0}, "geometry": {"type": "Point", "coordinates": [8.511055400395287, 47.39148609556343]}}, {"id": "141", "type": "Feature", "properties": {"ADRESSE": "Limmatstrasse 165", "GEBUEHRENP": 0, "ZEIT_BEWIT": 0, "FK_FAHRZEU": 9, "ANZ_PP": 4, "FK_PFOSTEN": 0, "UNT_ERZ": 1, "FOTO": "20190423144141.jpg", "BEMERKUNG": null, "EINGEFUEGT": "2015-01-01", "STATUS": 0, "GELOESCHT_": null, "GELOESCHT1": null, "ABSCHLEPP": 0}, "geometry": {"type": "Point", "coordinates": [8.530354980163715, 47.38532479028562]}}, {"id": "142", "type": "Feature", "properties": {"ADRESSE": "Gasometerstrasse 23", "GEBUEHRENP": 0, "ZEIT_BEWIT": 0, "FK_FAHRZEU": 9, "ANZ_PP": 14, "FK_PFOSTEN": 2, "UNT_ERZ": 1, "FOTO": "20190423142824.jpg", "BEMERKUNG": null, "EINGEFUEGT": "2015-01-01", "STATUS": 0, "GELOESCHT_": null, "GELOESCHT1": null, "ABSCHLEPP": 0}, "geometry": {"type": "Point", "coordinates": [8.52899871978634, 47.38415594819758]}}, {"id": "143", "type": "Feature", "properties": {"ADRESSE": "Gasometerstrasse 24", "GEBUEHRENP": 0, "ZEIT_BEWIT": 0, "FK_FAHRZEU": 9, "ANZ_PP": 12, "FK_PFOSTEN": 2, "UNT_ERZ": 1, "FOTO": "20190423142431.jpg", "BEMERKUNG": null, "EINGEFUEGT": "2015-01-01", "STATUS": 0, "GELOESCHT_": null, "GELOESCHT1": null, "ABSCHLEPP": 0}, "geometry": {"type": "Point", "coordinates": [8.528852873854031, 47.38391314363867]}}, {"id": "144", "type": "Feature", "properties": {"ADRESSE": "Giessereistrasse 9", "GEBUEHRENP": 0, "ZEIT_BEWIT": 0, "FK_FAHRZEU": 9, "ANZ_PP": 24, "FK_PFOSTEN": 1, "UNT_ERZ": 0, "FOTO": "20190925093843.jpg", "BEMERKUNG": null, "EINGEFUEGT": "2015-01-01", "STATUS": 0, "GELOESCHT_": null, "GELOESCHT1": null, "ABSCHLEPP": 0}, "geometry": {"type": "Point", "coordinates": [8.518274431265368, 47.3897012297968]}}, {"id": "145", "type": "Feature", "properties": {"ADRESSE": "Maneggplatz 14", "GEBUEHRENP": 0, "ZEIT_BEWIT": 0, "FK_FAHRZEU": 9, "ANZ_PP": 18, "FK_PFOSTEN": 0, "UNT_ERZ": 0, "FOTO": "20190717105834.jpg", "BEMERKUNG": null, "EINGEFUEGT": "2018-08-03", "STATUS": 0, "GELOESCHT_": null, "GELOESCHT1": null, "ABSCHLEPP": 0}, "geometry": {"type": "Point", "coordinates": [8.520510875679221, 47.34012415606547]}}, {"id": "146", "type": "Feature", "properties": {"ADRESSE": "Maneggstrasse 59", "GEBUEHRENP": 0, "ZEIT_BEWIT": 0, "FK_FAHRZEU": 9, "ANZ_PP": 20, "FK_PFOSTEN": 0, "UNT_ERZ": 0, "FOTO": "20190717105852.jpg", "BEMERKUNG": null, "EINGEFUEGT": "2018-08-03", "STATUS": 0, "GELOESCHT_": null, "GELOESCHT1": null, "ABSCHLEPP": 0}, "geometry": {"type": "Point", "coordinates": [8.520310747530381, 47.34017327082935]}}, {"id": "147", "type": "Feature", "properties": {"ADRESSE": "Maneggplatz 18a", "GEBUEHRENP": 0, "ZEIT_BEWIT": 0, "FK_FAHRZEU": 9, "ANZ_PP": 16, "FK_PFOSTEN": 0, "UNT_ERZ": 0, "FOTO": "20190717105709.jpg", "BEMERKUNG": null, "EINGEFUEGT": "2018-08-03", "STATUS": 0, "GELOESCHT_": null, "GELOESCHT1": null, "ABSCHLEPP": 0}, "geometry": {"type": "Point", "coordinates": [8.520519994760539, 47.33955536747872]}}, {"id": "148", "type": "Feature", "properties": {"ADRESSE": "Spinnereiplatz 1", "GEBUEHRENP": 0, "ZEIT_BEWIT": 0, "FK_FAHRZEU": 9, "ANZ_PP": 30, "FK_PFOSTEN": 0, "UNT_ERZ": 0, "FOTO": "20190717105529.jpg", "BEMERKUNG": null, "EINGEFUEGT": "2018-08-03", "STATUS": 0, "GELOESCHT_": null, "GELOESCHT1": null, "ABSCHLEPP": 0}, "geometry": {"type": "Point", "coordinates": [8.52085598768706, 47.33898731144095]}}, {"id": "149", "type": "Feature", "properties": {"ADRESSE": "Marchwartstrasse 38", "GEBUEHRENP": 0, "ZEIT_BEWIT": 0, "FK_FAHRZEU": 9, "ANZ_PP": 4, "FK_PFOSTEN": 0, "UNT_ERZ": 0, "FOTO": "20190709091132.jpg", "BEMERKUNG": null, "EINGEFUEGT": "2018-08-06", "STATUS": 0, "GELOESCHT_": null, "GELOESCHT1": null, "ABSCHLEPP": 0}, "geometry": {"type": "Point", "coordinates": [8.525777743720502, 47.33757076799985]}}, {"id": "150", "type": "Feature", "properties": {"ADRESSE": "Entlisbergstrasse 49", "GEBUEHRENP": 0, "ZEIT_BEWIT": 0, "FK_FAHRZEU": 9, "ANZ_PP": 10, "FK_PFOSTEN": 0, "UNT_ERZ": 0, "FOTO": "20190709083257.jpg", "BEMERKUNG": null, "EINGEFUEGT": "2018-08-06", "STATUS": 0, "GELOESCHT_": null, "GELOESCHT1": null, "ABSCHLEPP": 0}, "geometry": {"type": "Point", "coordinates": [8.525325760744789, 47.336338296099534]}}, {"id": "151", "type": "Feature", "properties": {"ADRESSE": "Seebacherstrasse 499", "GEBUEHRENP": 0, "ZEIT_BEWIT": 0, "FK_FAHRZEU": 1, "ANZ_PP": 14, "FK_PFOSTEN": 7, "UNT_ERZ": 0, "FOTO": "20191101113904.jpg", "BEMERKUNG": null, "EINGEFUEGT": "2018-10-10", "STATUS": 0, "GELOESCHT_": null, "GELOESCHT1": null, "ABSCHLEPP": 0}, "geometry": {"type": "Point", "coordinates": [8.521125863529335, 47.41489613397515]}}, {"id": "152", "type": "Feature", "properties": {"ADRESSE": "Schweighofstrasse 425a", "GEBUEHRENP": 0, "ZEIT_BEWIT": 0, "FK_FAHRZEU": 9, "ANZ_PP": 12, "FK_PFOSTEN": 0, "UNT_ERZ": 0, "FOTO": "20190821102914.jpg", "BEMERKUNG": null, "EINGEFUEGT": "2019-08-21", "STATUS": 0, "GELOESCHT_": null, "GELOESCHT1": null, "ABSCHLEPP": 0}, "geometry": {"type": "Point", "coordinates": [8.501225822185937, 47.36795544115023]}}, {"id": "153", "type": "Feature", "properties": {"ADRESSE": "Letzigraben 176", "GEBUEHRENP": 0, "ZEIT_BEWIT": 0, "FK_FAHRZEU": 1, "ANZ_PP": 24, "FK_PFOSTEN": 0, "UNT_ERZ": 0, "FOTO": "20190828143041.jpg", "BEMERKUNG": null, "EINGEFUEGT": "2019-08-28", "STATUS": 0, "GELOESCHT_": null, "GELOESCHT1": null, "ABSCHLEPP": 0}, "geometry": {"type": "Point", "coordinates": [8.494604634699437, 47.373430593939524]}}, {"id": "154", "type": "Feature", "properties": {"ADRESSE": "Flurstrasse 61", "GEBUEHRENP": 0, "ZEIT_BEWIT": 0, "FK_FAHRZEU": 2, "ANZ_PP": 50, "FK_PFOSTEN": 0, "UNT_ERZ": 0, "FOTO": "20190903111534.jpg", "BEMERKUNG": null, "EINGEFUEGT": "2019-09-03", "STATUS": 0, "GELOESCHT_": null, "GELOESCHT1": null, "ABSCHLEPP": 0}, "geometry": {"type": "Point", "coordinates": [8.494601898519015, 47.38357380621313]}}, {"id": "155", "type": "Feature", "properties": {"ADRESSE": "Ueberlandstrasse 446", "GEBUEHRENP": 0, "ZEIT_BEWIT": 0, "FK_FAHRZEU": 1, "ANZ_PP": 12, "FK_PFOSTEN": 0, "UNT_ERZ": 0, "FOTO": "20191017105547.jpg", "BEMERKUNG": null, "EINGEFUEGT": "2019-10-17", "STATUS": 0, "GELOESCHT_": null, "GELOESCHT1": null, "ABSCHLEPP": 0}, "geometry": {"type": "Point", "coordinates": [8.592257516230408, 47.40521579141786]}}, {"id": "156", "type": "Feature", "properties": {"ADRESSE": "Hofwiesenstrasse 10", "GEBUEHRENP": 0, "ZEIT_BEWIT": 0, "FK_FAHRZEU": 1, "ANZ_PP": 5, "FK_PFOSTEN": 0, "UNT_ERZ": 0, "FOTO": "20191018142740.jpg", "BEMERKUNG": null, "EINGEFUEGT": "2019-10-18", "STATUS": 0, "GELOESCHT_": null, "GELOESCHT1": null, "ABSCHLEPP": 0}, "geometry": {"type": "Point", "coordinates": [8.538374882231228, 47.39252548612961]}}, {"id": "157", "type": "Feature", "properties": {"ADRESSE": "Herbstweg 20", "GEBUEHRENP": 0, "ZEIT_BEWIT": 0, "FK_FAHRZEU": 1, "ANZ_PP": 4, "FK_PFOSTEN": 0, "UNT_ERZ": 0, "FOTO": "20191025123543.jpg", "BEMERKUNG": null, "EINGEFUEGT": "2019-10-25", "STATUS": 0, "GELOESCHT_": null, "GELOESCHT1": null, "ABSCHLEPP": 0}, "geometry": {"type": "Point", "coordinates": [8.55768224475709, 47.405929263715265]}}, {"id": "158", "type": "Feature", "properties": {"ADRESSE": "Baslerstrasse 52", "GEBUEHRENP": 0, "ZEIT_BEWIT": 0, "FK_FAHRZEU": 9, "ANZ_PP": 60, "FK_PFOSTEN": 0, "UNT_ERZ": 0, "FOTO": "20191108141253.jpg", "BEMERKUNG": null, "EINGEFUEGT": "2019-11-08", "STATUS": 0, "GELOESCHT_": null, "GELOESCHT1": null, "ABSCHLEPP": 0}, "geometry": {"type": "Point", "coordinates": [8.497859142952763, 47.38644925549924]}}, {"id": "159", "type": "Feature", "properties": {"ADRESSE": "Giessereistrasse 12", "GEBUEHRENP": 0, "ZEIT_BEWIT": 0, "FK_FAHRZEU": 1, "ANZ_PP": 40, "FK_PFOSTEN": 7, "UNT_ERZ": 0, "FOTO": "20190925094019.jpg", "BEMERKUNG": null, "EINGEFUEGT": "2015-01-01", "STATUS": 0, "GELOESCHT_": null, "GELOESCHT1": null, "ABSCHLEPP": 0}, "geometry": {"type": "Point", "coordinates": [8.518220861930773, 47.39018854950451]}}, {"id": "160", "type": "Feature", "properties": {"ADRESSE": "Giessereistrasse 14", "GEBUEHRENP": 0, "ZEIT_BEWIT": 0, "FK_FAHRZEU": 1, "ANZ_PP": 48, "FK_PFOSTEN": 7, "UNT_ERZ": 0, "FOTO": "20190925094038.jpg", "BEMERKUNG": null, "EINGEFUEGT": "2015-01-01", "STATUS": 0, "GELOESCHT_": null, "GELOESCHT1": null, "ABSCHLEPP": 0}, "geometry": {"type": "Point", "coordinates": [8.518427165734833, 47.390424622160424]}}, {"id": "161", "type": "Feature", "properties": {"ADRESSE": "Giessereistrasse 16", "GEBUEHRENP": 0, "ZEIT_BEWIT": 0, "FK_FAHRZEU": 1, "ANZ_PP": 40, "FK_PFOSTEN": 7, "UNT_ERZ": 0, "FOTO": "20190925094103.jpg", "BEMERKUNG": null, "EINGEFUEGT": "2015-01-01", "STATUS": 0, "GELOESCHT_": null, "GELOESCHT1": null, "ABSCHLEPP": 0}, "geometry": {"type": "Point", "coordinates": [8.518562664372979, 47.390625654818734]}}, {"id": "162", "type": "Feature", "properties": {"ADRESSE": "Technoparkstrasse 10a", "GEBUEHRENP": 0, "ZEIT_BEWIT": 0, "FK_FAHRZEU": 9, "ANZ_PP": 16, "FK_PFOSTEN": 7, "UNT_ERZ": 1, "FOTO": "20190925094916.jpg", "BEMERKUNG": null, "EINGEFUEGT": "2015-01-01", "STATUS": 0, "GELOESCHT_": null, "GELOESCHT1": null, "ABSCHLEPP": 0}, "geometry": {"type": "Point", "coordinates": [8.517461330203007, 47.391017630196664]}}, {"id": "163", "type": "Feature", "properties": {"ADRESSE": "Pfingstweidstrasse 96e", "GEBUEHRENP": 0, "ZEIT_BEWIT": 0, "FK_FAHRZEU": 9, "ANZ_PP": 224, "FK_PFOSTEN": 1, "UNT_ERZ": 0, "FOTO": "20190925100644.jpg", "BEMERKUNG": "unter Gleisen", "EINGEFUEGT": "2015-01-01", "STATUS": 0, "GELOESCHT_": null, "GELOESCHT1": null, "ABSCHLEPP": 0}, "geometry": {"type": "Point", "coordinates": [8.510795486806273, 47.39056113588027]}}, {"id": "164", "type": "Feature", "properties": {"ADRESSE": "Hagenholzstrasse 106b", "GEBUEHRENP": 0, "ZEIT_BEWIT": 0, "FK_FAHRZEU": 9, "ANZ_PP": 8, "FK_PFOSTEN": 7, "UNT_ERZ": 0, "FOTO": "20191030115623.jpg", "BEMERKUNG": null, "EINGEFUEGT": "2018-06-19", "STATUS": 0, "GELOESCHT_": null, "GELOESCHT1": null, "ABSCHLEPP": 0}, "geometry": {"type": "Point", "coordinates": [8.560750906733965, 47.41431671258571]}}, {"id": "165", "type": "Feature", "properties": {"ADRESSE": "Im Rossweidli 33", "GEBUEHRENP": 0, "ZEIT_BEWIT": 0, "FK_FAHRZEU": 9, "ANZ_PP": 6, "FK_PFOSTEN": 0, "UNT_ERZ": 1, "FOTO": "20190731093706.jpg", "BEMERKUNG": null, "EINGEFUEGT": "2015-01-01", "STATUS": 0, "GELOESCHT_": null, "GELOESCHT1": null, "ABSCHLEPP": 0}, "geometry": {"type": "Point", "coordinates": [8.505212838958325, 47.358504642435484]}}, {"id": "166", "type": "Feature", "properties": {"ADRESSE": "Marie-Heim-V\u00f6gtlin-Weg 60", "GEBUEHRENP": 0, "ZEIT_BEWIT": 0, "FK_FAHRZEU": 1, "ANZ_PP": 5, "FK_PFOSTEN": 7, "UNT_ERZ": 1, "FOTO": "20190821091132.jpg", "BEMERKUNG": null, "EINGEFUEGT": "2015-01-01", "STATUS": 0, "GELOESCHT_": null, "GELOESCHT1": null, "ABSCHLEPP": 0}, "geometry": {"type": "Point", "coordinates": [8.49923369871718, 47.365548850135255]}}, {"id": "167", "type": "Feature", "properties": {"ADRESSE": "Triemlistrasse 181", "GEBUEHRENP": 0, "ZEIT_BEWIT": 0, "FK_FAHRZEU": 1, "ANZ_PP": 5, "FK_PFOSTEN": 0, "UNT_ERZ": 0, "FOTO": "20190828125557.jpg", "BEMERKUNG": null, "EINGEFUEGT": "2015-01-01", "STATUS": 0, "GELOESCHT_": null, "GELOESCHT1": null, "ABSCHLEPP": 0}, "geometry": {"type": "Point", "coordinates": [8.49479019468074, 47.3682132758072]}}, {"id": "168", "type": "Feature", "properties": {"ADRESSE": "Altstetterstrasse 330", "GEBUEHRENP": 0, "ZEIT_BEWIT": 0, "FK_FAHRZEU": 9, "ANZ_PP": 12, "FK_PFOSTEN": 1, "UNT_ERZ": 1, "FOTO": "20190830100723.jpg", "BEMERKUNG": null, "EINGEFUEGT": "2015-01-01", "STATUS": 0, "GELOESCHT_": null, "GELOESCHT1": null, "ABSCHLEPP": 0}, "geometry": {"type": "Point", "coordinates": [8.484075844115356, 47.37602806631401]}}, {"id": "169", "type": "Feature", "properties": {"ADRESSE": "Gr\u00fctstrasse 39", "GEBUEHRENP": 0, "ZEIT_BEWIT": 0, "FK_FAHRZEU": 1, "ANZ_PP": 6, "FK_PFOSTEN": 9, "UNT_ERZ": 1, "FOTO": "H3_017.jpg", "BEMERKUNG": null, "EINGEFUEGT": "2015-01-01", "STATUS": 0, "GELOESCHT_": null, "GELOESCHT1": null, "ABSCHLEPP": 0}, "geometry": {"type": "Point", "coordinates": [8.491093691885155, 47.37660361832398]}}, {"id": "170", "type": "Feature", "properties": {"ADRESSE": "Albisriederstrasse 342", "GEBUEHRENP": 0, "ZEIT_BEWIT": 0, "FK_FAHRZEU": 1, "ANZ_PP": 18, "FK_PFOSTEN": 9, "UNT_ERZ": 1, "FOTO": "20190828122151.jpg", "BEMERKUNG": null, "EINGEFUEGT": "2015-01-01", "STATUS": 0, "GELOESCHT_": null, "GELOESCHT1": null, "ABSCHLEPP": 0}, "geometry": {"type": "Point", "coordinates": [8.48672339629608, 47.375626712630854]}}, {"id": "171", "type": "Feature", "properties": {"ADRESSE": "Albisriederstrasse 334a", "GEBUEHRENP": 0, "ZEIT_BEWIT": 0, "FK_FAHRZEU": 9, "ANZ_PP": 14, "FK_PFOSTEN": 9, "UNT_ERZ": 1, "FOTO": "20190830101429.jpg", "BEMERKUNG": null, "EINGEFUEGT": "2015-01-01", "STATUS": 0, "GELOESCHT_": null, "GELOESCHT1": null, "ABSCHLEPP": 0}, "geometry": {"type": "Point", "coordinates": [8.48765438232992, 47.375886779848194]}}, {"id": "172", "type": "Feature", "properties": {"ADRESSE": "Fellenbergstrasse 286", "GEBUEHRENP": 0, "ZEIT_BEWIT": 0, "FK_FAHRZEU": 9, "ANZ_PP": 2, "FK_PFOSTEN": 1, "UNT_ERZ": 1, "FOTO": "20190829113009.jpg", "BEMERKUNG": null, "EINGEFUEGT": "2015-01-01", "STATUS": 0, "GELOESCHT_": null, "GELOESCHT1": null, "ABSCHLEPP": 0}, "geometry": {"type": "Point", "coordinates": [8.490634469383505, 47.37536198536326]}}, {"id": "173", "type": "Feature", "properties": {"ADRESSE": "Fellenbergstrasse 288", "GEBUEHRENP": 0, "ZEIT_BEWIT": 0, "FK_FAHRZEU": 9, "ANZ_PP": 3, "FK_PFOSTEN": 0, "UNT_ERZ": 1, "FOTO": "20190829113037.jpg", "BEMERKUNG": null, "EINGEFUEGT": "2015-01-01", "STATUS": 0, "GELOESCHT_": null, "GELOESCHT1": null, "ABSCHLEPP": 0}, "geometry": {"type": "Point", "coordinates": [8.490417238478235, 47.37534067523189]}}, {"id": "174", "type": "Feature", "properties": {"ADRESSE": "Ausstellungsstrasse 88", "GEBUEHRENP": 0, "ZEIT_BEWIT": 0, "FK_FAHRZEU": 9, "ANZ_PP": 20, "FK_PFOSTEN": 1, "UNT_ERZ": 1, "FOTO": "20190423130233.jpg", "BEMERKUNG": null, "EINGEFUEGT": "2015-01-01", "STATUS": 0, "GELOESCHT_": null, "GELOESCHT1": null, "ABSCHLEPP": 0}, "geometry": {"type": "Point", "coordinates": [8.534205806194231, 47.38396711972753]}}, {"id": "175", "type": "Feature", "properties": {"ADRESSE": "Katzenbachstrasse 160", "GEBUEHRENP": 0, "ZEIT_BEWIT": 0, "FK_FAHRZEU": 9, "ANZ_PP": 6, "FK_PFOSTEN": 0, "UNT_ERZ": 0, "FOTO": "20191017151619.jpg", "BEMERKUNG": null, "EINGEFUEGT": "2019-10-17", "STATUS": 0, "GELOESCHT_": null, "GELOESCHT1": null, "ABSCHLEPP": 0}, "geometry": {"type": "Point", "coordinates": [8.545224839149263, 47.423598833135664]}}, {"id": "176", "type": "Feature", "properties": {"ADRESSE": "Hardstrasse 182", "GEBUEHRENP": 0, "ZEIT_BEWIT": 1, "FK_FAHRZEU": 1, "ANZ_PP": 192, "FK_PFOSTEN": 3, "UNT_ERZ": 1, "FOTO": "20190925085600.jpg", "BEMERKUNG": "Auf Hardbr\u00fccke", "EINGEFUEGT": "2015-01-01", "STATUS": 0, "GELOESCHT_": null, "GELOESCHT1": null, "ABSCHLEPP": 1}, "geometry": {"type": "Point", "coordinates": [8.517009330291527, 47.384864635419085]}}, {"id": "177", "type": "Feature", "properties": {"ADRESSE": "Hardstrasse 181", "GEBUEHRENP": 0, "ZEIT_BEWIT": 1, "FK_FAHRZEU": 1, "ANZ_PP": 192, "FK_PFOSTEN": 3, "UNT_ERZ": 1, "FOTO": "20190925085751.jpg", "BEMERKUNG": "Auf Hardbr\u00fccke", "EINGEFUEGT": "2015-01-01", "STATUS": 0, "GELOESCHT_": null, "GELOESCHT1": null, "ABSCHLEPP": 1}, "geometry": {"type": "Point", "coordinates": [8.516717244020368, 47.38497684036528]}}, {"id": "178", "type": "Feature", "properties": {"ADRESSE": "Katzenbachstrasse 120", "GEBUEHRENP": 0, "ZEIT_BEWIT": 0, "FK_FAHRZEU": 9, "ANZ_PP": 6, "FK_PFOSTEN": 0, "UNT_ERZ": 0, "FOTO": "20191017151827.jpg", "BEMERKUNG": null, "EINGEFUEGT": "2019-10-17", "STATUS": 0, "GELOESCHT_": null, "GELOESCHT1": null, "ABSCHLEPP": 0}, "geometry": {"type": "Point", "coordinates": [8.545808644262001, 47.423349114313524]}}, {"id": "179", "type": "Feature", "properties": {"ADRESSE": "Hardstrasse 214", "GEBUEHRENP": 0, "ZEIT_BEWIT": 0, "FK_FAHRZEU": 1, "ANZ_PP": 64, "FK_PFOSTEN": 3, "UNT_ERZ": 1, "FOTO": "20190925085025.jpg", "BEMERKUNG": null, "EINGEFUEGT": "2015-01-01", "STATUS": 0, "GELOESCHT_": null, "GELOESCHT1": null, "ABSCHLEPP": 0}, "geometry": {"type": "Point", "coordinates": [8.517854838687194, 47.38576721326045]}}, {"id": "180", "type": "Feature", "properties": {"ADRESSE": "Limmatstrasse 310", "GEBUEHRENP": 0, "ZEIT_BEWIT": 0, "FK_FAHRZEU": 1, "ANZ_PP": 30, "FK_PFOSTEN": 7, "UNT_ERZ": 1, "FOTO": "20190920084407.jpg", "BEMERKUNG": null, "EINGEFUEGT": "2015-01-01", "STATUS": 0, "GELOESCHT_": null, "GELOESCHT1": null, "ABSCHLEPP": 0}, "geometry": {"type": "Point", "coordinates": [8.524135295897604, 47.389848685784386]}}, {"id": "181", "type": "Feature", "properties": {"ADRESSE": "Limmatstrasse 315", "GEBUEHRENP": 0, "ZEIT_BEWIT": 0, "FK_FAHRZEU": 9, "ANZ_PP": 85, "FK_PFOSTEN": 0, "UNT_ERZ": 1, "FOTO": "20190920084501.jpg", "BEMERKUNG": null, "EINGEFUEGT": "2015-01-01", "STATUS": 0, "GELOESCHT_": null, "GELOESCHT1": null, "ABSCHLEPP": 0}, "geometry": {"type": "Point", "coordinates": [8.523738054252282, 47.39011563442934]}}, {"id": "182", "type": "Feature", "properties": {"ADRESSE": "Turbinenstrasse 21", "GEBUEHRENP": 0, "ZEIT_BEWIT": 0, "FK_FAHRZEU": 1, "ANZ_PP": 5, "FK_PFOSTEN": 9, "UNT_ERZ": 0, "FOTO": "20190925113110.jpg", "BEMERKUNG": null, "EINGEFUEGT": "2015-01-01", "STATUS": 0, "GELOESCHT_": null, "GELOESCHT1": null, "ABSCHLEPP": 0}, "geometry": {"type": "Point", "coordinates": [8.51533589342107, 47.38765866686834]}}, {"id": "183", "type": "Feature", "properties": {"ADRESSE": "Sihlquai 346", "GEBUEHRENP": 0, "ZEIT_BEWIT": 0, "FK_FAHRZEU": 2, "ANZ_PP": 10, "FK_PFOSTEN": 0, "UNT_ERZ": 1, "FOTO": "R1_125.JPG", "BEMERKUNG": "unter der Hardbr\u00fccke", "EINGEFUEGT": "2015-01-01", "STATUS": 0, "GELOESCHT_": null, "GELOESCHT1": null, "ABSCHLEPP": 0}, "geometry": {"type": "Point", "coordinates": [8.523097628204315, 47.39133091443803]}}, {"id": "184", "type": "Feature", "properties": {"ADRESSE": "Viaduktstrasse 21", "GEBUEHRENP": 0, "ZEIT_BEWIT": 0, "FK_FAHRZEU": 9, "ANZ_PP": 12, "FK_PFOSTEN": 1, "UNT_ERZ": 0, "FOTO": "20190920100549.jpg", "BEMERKUNG": null, "EINGEFUEGT": "2015-01-01", "STATUS": 0, "GELOESCHT_": null, "GELOESCHT1": null, "ABSCHLEPP": 0}, "geometry": {"type": "Point", "coordinates": [8.525093195048496, 47.38744299890437]}}, {"id": "185", "type": "Feature", "properties": {"ADRESSE": "Viaduktstrasse 43", "GEBUEHRENP": 0, "ZEIT_BEWIT": 0, "FK_FAHRZEU": 9, "ANZ_PP": 28, "FK_PFOSTEN": 1, "UNT_ERZ": 0, "FOTO": "R1_127.JPG", "BEMERKUNG": null, "EINGEFUEGT": "2015-01-01", "STATUS": 0, "GELOESCHT_": null, "GELOESCHT1": null, "ABSCHLEPP": 0}, "geometry": {"type": "Point", "coordinates": [8.524099597391693, 47.386842408220424]}}, {"id": "186", "type": "Feature", "properties": {"ADRESSE": "Uraniastrasse 3", "GEBUEHRENP": 0, "ZEIT_BEWIT": 0, "FK_FAHRZEU": 1, "ANZ_PP": 4, "FK_PFOSTEN": 7, "UNT_ERZ": 0, "FOTO": "20190417135306.jpg", "BEMERKUNG": null, "EINGEFUEGT": "2017-07-03", "STATUS": 0, "GELOESCHT_": null, "GELOESCHT1": null, "ABSCHLEPP": 0}, "geometry": {"type": "Point", "coordinates": [8.540784313113942, 47.374239324983876]}}, {"id": "187", "type": "Feature", "properties": {"ADRESSE": "Katzenschwanzstrasse 45", "GEBUEHRENP": 0, "ZEIT_BEWIT": 0, "FK_FAHRZEU": 1, "ANZ_PP": 14, "FK_PFOSTEN": 7, "UNT_ERZ": 0, "FOTO": "20190604090450.jpg", "BEMERKUNG": null, "EINGEFUEGT": "2018-04-04", "STATUS": 0, "GELOESCHT_": null, "GELOESCHT1": null, "ABSCHLEPP": 0}, "geometry": {"type": "Point", "coordinates": [8.596981532321008, 47.362234505908674]}}, {"id": "188", "type": "Feature", "properties": {"ADRESSE": "Hohlstrasse 485a", "GEBUEHRENP": 0, "ZEIT_BEWIT": 0, "FK_FAHRZEU": 1, "ANZ_PP": 30, "FK_PFOSTEN": 0, "UNT_ERZ": 0, "FOTO": "20181227150404.jpg", "BEMERKUNG": null, "EINGEFUEGT": "2018-12-27", "STATUS": 0, "GELOESCHT_": null, "GELOESCHT1": null, "ABSCHLEPP": 0}, "geometry": {"type": "Point", "coordinates": [8.49462860620778, 47.3888072569505]}}, {"id": "189", "type": "Feature", "properties": {"ADRESSE": "Gutenbergstrasse 6", "GEBUEHRENP": 0, "ZEIT_BEWIT": 0, "FK_FAHRZEU": 1, "ANZ_PP": 6, "FK_PFOSTEN": 0, "UNT_ERZ": 0, "FOTO": "20190529091158.jpg", "BEMERKUNG": null, "EINGEFUEGT": "2019-05-29", "STATUS": 0, "GELOESCHT_": null, "GELOESCHT1": null, "ABSCHLEPP": 0}, "geometry": {"type": "Point", "coordinates": [8.530764091997412, 47.365264481676746]}}, {"id": "190", "type": "Feature", "properties": {"ADRESSE": "Zypressenstrasse 60", "GEBUEHRENP": 0, "ZEIT_BEWIT": 0, "FK_FAHRZEU": 1, "ANZ_PP": 14, "FK_PFOSTEN": 0, "UNT_ERZ": 0, "FOTO": "20190729100913.jpg", "BEMERKUNG": null, "EINGEFUEGT": "2019-07-29", "STATUS": 0, "GELOESCHT_": null, "GELOESCHT1": null, "ABSCHLEPP": 0}, "geometry": {"type": "Point", "coordinates": [8.513547694852196, 47.37775702717779]}}, {"id": "191", "type": "Feature", "properties": {"ADRESSE": "Seebahnstrasse 177", "GEBUEHRENP": 0, "ZEIT_BEWIT": 0, "FK_FAHRZEU": 9, "ANZ_PP": 2, "FK_PFOSTEN": 9, "UNT_ERZ": 0, "FOTO": "20190729102655.jpg", "BEMERKUNG": null, "EINGEFUEGT": "2019-07-29", "STATUS": 0, "GELOESCHT_": null, "GELOESCHT1": null, "ABSCHLEPP": 0}, "geometry": {"type": "Point", "coordinates": [8.517967002501928, 47.375882675294044]}}, {"id": "192", "type": "Feature", "properties": {"ADRESSE": "Seebahnstrasse 181", "GEBUEHRENP": 0, "ZEIT_BEWIT": 0, "FK_FAHRZEU": 9, "ANZ_PP": 8, "FK_PFOSTEN": 0, "UNT_ERZ": 0, "FOTO": "20190729102744.jpg", "BEMERKUNG": null, "EINGEFUEGT": "2019-07-29", "STATUS": 0, "GELOESCHT_": null, "GELOESCHT1": null, "ABSCHLEPP": 0}, "geometry": {"type": "Point", "coordinates": [8.518218183249086, 47.37601596116023]}}, {"id": "193", "type": "Feature", "properties": {"ADRESSE": "Seebahnstrasse 181", "GEBUEHRENP": 0, "ZEIT_BEWIT": 0, "FK_FAHRZEU": 9, "ANZ_PP": 2, "FK_PFOSTEN": 9, "UNT_ERZ": 0, "FOTO": "20190729102816.jpg", "BEMERKUNG": null, "EINGEFUEGT": "2019-07-29", "STATUS": 0, "GELOESCHT_": null, "GELOESCHT1": null, "ABSCHLEPP": 0}, "geometry": {"type": "Point", "coordinates": [8.517996583435167, 47.37618972926251]}}, {"id": "194", "type": "Feature", "properties": {"ADRESSE": "Idastrasse 1", "GEBUEHRENP": 0, "ZEIT_BEWIT": 0, "FK_FAHRZEU": 9, "ANZ_PP": 10, "FK_PFOSTEN": 0, "UNT_ERZ": 0, "FOTO": "20190729145703.jpg", "BEMERKUNG": null, "EINGEFUEGT": "2019-07-29", "STATUS": 0, "GELOESCHT_": null, "GELOESCHT1": null, "ABSCHLEPP": 0}, "geometry": {"type": "Point", "coordinates": [8.516347746372888, 47.37203457665391]}}, {"id": "195", "type": "Feature", "properties": {"ADRESSE": "Katzenbachstrasse 163", "GEBUEHRENP": 0, "ZEIT_BEWIT": 0, "FK_FAHRZEU": 1, "ANZ_PP": 24, "FK_PFOSTEN": 0, "UNT_ERZ": 0, "FOTO": "20191017151713.jpg", "BEMERKUNG": null, "EINGEFUEGT": "2019-10-17", "STATUS": 0, "GELOESCHT_": null, "GELOESCHT1": null, "ABSCHLEPP": 0}, "geometry": {"type": "Point", "coordinates": [8.545118013086197, 47.423404015263635]}}, {"id": "196", "type": "Feature", "properties": {"ADRESSE": "Weinbergstrasse 168", "GEBUEHRENP": 0, "ZEIT_BEWIT": 0, "FK_FAHRZEU": 9, "ANZ_PP": 6, "FK_PFOSTEN": 2, "UNT_ERZ": 1, "FOTO": "20191018143141.jpg", "BEMERKUNG": null, "EINGEFUEGT": "2015-01-01", "STATUS": 0, "GELOESCHT_": null, "GELOESCHT1": null, "ABSCHLEPP": 0}, "geometry": {"type": "Point", "coordinates": [8.539054495267164, 47.391414553510224]}}, {"id": "197", "type": "Feature", "properties": {"ADRESSE": "Schaffhauserstrasse 64", "GEBUEHRENP": 0, "ZEIT_BEWIT": 0, "FK_FAHRZEU": 9, "ANZ_PP": 24, "FK_PFOSTEN": 2, "UNT_ERZ": 1, "FOTO": "20191018142447.jpg", "BEMERKUNG": null, "EINGEFUEGT": "2015-01-01", "STATUS": 0, "GELOESCHT_": null, "GELOESCHT1": null, "ABSCHLEPP": 0}, "geometry": {"type": "Point", "coordinates": [8.539049751362679, 47.39232268920268]}}, {"id": "198", "type": "Feature", "properties": {"ADRESSE": "Limmatquai 68", "GEBUEHRENP": 0, "ZEIT_BEWIT": 0, "FK_FAHRZEU": 1, "ANZ_PP": 10, "FK_PFOSTEN": 2, "UNT_ERZ": 1, "FOTO": "20190515082149.jpg", "BEMERKUNG": null, "EINGEFUEGT": "2015-01-01", "STATUS": 0, "GELOESCHT_": null, "GELOESCHT1": null, "ABSCHLEPP": 1}, "geometry": {"type": "Point", "coordinates": [8.542859131264127, 47.37253407193491]}}, {"id": "199", "type": "Feature", "properties": {"ADRESSE": "Limmatquai 78", "GEBUEHRENP": 0, "ZEIT_BEWIT": 0, "FK_FAHRZEU": 1, "ANZ_PP": 10, "FK_PFOSTEN": 2, "UNT_ERZ": 1, "FOTO": "20190515082249.jpg", "BEMERKUNG": null, "EINGEFUEGT": "2015-01-01", "STATUS": 0, "GELOESCHT_": null, "GELOESCHT1": null, "ABSCHLEPP": 1}, "geometry": {"type": "Point", "coordinates": [8.542850582844006, 47.37326302170748]}}, {"id": "200", "type": "Feature", "properties": {"ADRESSE": "Limmatquai 84", "GEBUEHRENP": 0, "ZEIT_BEWIT": 0, "FK_FAHRZEU": 1, "ANZ_PP": 8, "FK_PFOSTEN": 2, "UNT_ERZ": 1, "FOTO": "20190515082324.jpg", "BEMERKUNG": null, "EINGEFUEGT": "2015-01-01", "STATUS": 0, "GELOESCHT_": null, "GELOESCHT1": null, "ABSCHLEPP": 1}, "geometry": {"type": "Point", "coordinates": [8.542895288967314, 47.3736114981659]}}, {"id": "201", "type": "Feature", "properties": {"ADRESSE": "Limmatstrasse 217", "GEBUEHRENP": 0, "ZEIT_BEWIT": 0, "FK_FAHRZEU": 9, "ANZ_PP": 10, "FK_PFOSTEN": 2, "UNT_ERZ": 1, "FOTO": "20190918101333.jpg", "BEMERKUNG": null, "EINGEFUEGT": "2015-01-01", "STATUS": 0, "GELOESCHT_": null, "GELOESCHT1": null, "ABSCHLEPP": 0}, "geometry": {"type": "Point", "coordinates": [8.527126072266043, 47.38744833192112]}}, {"id": "202", "type": "Feature", "properties": {"ADRESSE": "Limmatstrasse 250", "GEBUEHRENP": 0, "ZEIT_BEWIT": 0, "FK_FAHRZEU": 9, "ANZ_PP": 12, "FK_PFOSTEN": 1, "UNT_ERZ": 0, "FOTO": "20190920083703.jpg", "BEMERKUNG": null, "EINGEFUEGT": "2015-01-01", "STATUS": 0, "GELOESCHT_": null, "GELOESCHT1": null, "ABSCHLEPP": 0}, "geometry": {"type": "Point", "coordinates": [8.526163879244239, 47.38850455513116]}}, {"id": "203", "type": "Feature", "properties": {"ADRESSE": "Limmatstrasse 266", "GEBUEHRENP": 0, "ZEIT_BEWIT": 0, "FK_FAHRZEU": 9, "ANZ_PP": 20, "FK_PFOSTEN": 1, "UNT_ERZ": 0, "FOTO": "20190920083756.jpg", "BEMERKUNG": null, "EINGEFUEGT": "2015-01-01", "STATUS": 0, "GELOESCHT_": null, "GELOESCHT1": null, "ABSCHLEPP": 0}, "geometry": {"type": "Point", "coordinates": [8.525869038677529, 47.38867852426678]}}, {"id": "204", "type": "Feature", "properties": {"ADRESSE": "Limmatstrasse 268", "GEBUEHRENP": 0, "ZEIT_BEWIT": 0, "FK_FAHRZEU": 9, "ANZ_PP": 20, "FK_PFOSTEN": 1, "UNT_ERZ": 0, "FOTO": "20190920083925.jpg", "BEMERKUNG": null, "EINGEFUEGT": "2015-01-01", "STATUS": 0, "GELOESCHT_": null, "GELOESCHT1": null, "ABSCHLEPP": 0}, "geometry": {"type": "Point", "coordinates": [8.525432251478216, 47.38891253873273]}}, {"id": "205", "type": "Feature", "properties": {"ADRESSE": "Limmatstrasse 270", "GEBUEHRENP": 0, "ZEIT_BEWIT": 0, "FK_FAHRZEU": 9, "ANZ_PP": 20, "FK_PFOSTEN": 1, "UNT_ERZ": 0, "FOTO": "R1_089.JPG", "BEMERKUNG": "teilweise \u00fcberdacht, da unterhalb Treppe", "EINGEFUEGT": "2015-01-01", "STATUS": 0, "GELOESCHT_": null, "GELOESCHT1": null, "ABSCHLEPP": 0}, "geometry": {"type": "Point", "coordinates": [8.524855020537467, 47.38927139227299]}}, {"id": "206", "type": "Feature", "properties": {"ADRESSE": "Luisenstrasse 29", "GEBUEHRENP": 0, "ZEIT_BEWIT": 0, "FK_FAHRZEU": 9, "ANZ_PP": 22, "FK_PFOSTEN": 2, "UNT_ERZ": 1, "FOTO": "20190423135847.jpg", "BEMERKUNG": null, "EINGEFUEGT": "2015-01-01", "STATUS": 0, "GELOESCHT_": null, "GELOESCHT1": null, "ABSCHLEPP": 0}, "geometry": {"type": "Point", "coordinates": [8.529460478244127, 47.38360459737021]}}, {"id": "207", "type": "Feature", "properties": {"ADRESSE": "Turbinenstrasse 21", "GEBUEHRENP": 0, "ZEIT_BEWIT": 0, "FK_FAHRZEU": 9, "ANZ_PP": 6, "FK_PFOSTEN": 1, "UNT_ERZ": 0, "FOTO": "R1_091.JPG", "BEMERKUNG": null, "EINGEFUEGT": "2015-01-01", "STATUS": 0, "GELOESCHT_": null, "GELOESCHT1": null, "ABSCHLEPP": 0}, "geometry": {"type": "Point", "coordinates": [8.515573462423397, 47.387761838985085]}}, {"id": "208", "type": "Feature", "properties": {"ADRESSE": "Maschinenstrasse 11", "GEBUEHRENP": 0, "ZEIT_BEWIT": 0, "FK_FAHRZEU": 9, "ANZ_PP": 10, "FK_PFOSTEN": 1, "UNT_ERZ": 0, "FOTO": "R1_092.JPG", "BEMERKUNG": null, "EINGEFUEGT": "2015-01-01", "STATUS": 0, "GELOESCHT_": null, "GELOESCHT1": null, "ABSCHLEPP": 0}, "geometry": {"type": "Point", "coordinates": [8.516283410956062, 47.38743035367769]}}, {"id": "209", "type": "Feature", "properties": {"ADRESSE": "Maschinenstrasse 13", "GEBUEHRENP": 0, "ZEIT_BEWIT": 0, "FK_FAHRZEU": 9, "ANZ_PP": 12, "FK_PFOSTEN": 1, "UNT_ERZ": 0, "FOTO": "20190925113023.jpg", "BEMERKUNG": null, "EINGEFUEGT": "2015-01-01", "STATUS": 0, "GELOESCHT_": null, "GELOESCHT1": null, "ABSCHLEPP": 0}, "geometry": {"type": "Point", "coordinates": [8.515991910542175, 47.387572306774246]}}, {"id": "210", "type": "Feature", "properties": {"ADRESSE": "Ausstellungsstrasse 70", "GEBUEHRENP": 0, "ZEIT_BEWIT": 0, "FK_FAHRZEU": 9, "ANZ_PP": 58, "FK_PFOSTEN": 1, "UNT_ERZ": 1, "FOTO": "20190423111534.jpg", "BEMERKUNG": "Technische Berufsschule Z\u00fcrich", "EINGEFUEGT": "2015-01-01", "STATUS": 0, "GELOESCHT_": null, "GELOESCHT1": null, "ABSCHLEPP": 0}, "geometry": {"type": "Point", "coordinates": [8.535176385229859, 47.38307813796043]}}, {"id": "211", "type": "Feature", "properties": {"ADRESSE": "Ausstellungsstrasse 95", "GEBUEHRENP": 0, "ZEIT_BEWIT": 0, "FK_FAHRZEU": 9, "ANZ_PP": 24, "FK_PFOSTEN": 1, "UNT_ERZ": 1, "FOTO": "20190423130134.jpg", "BEMERKUNG": null, "EINGEFUEGT": "2015-01-01", "STATUS": 0, "GELOESCHT_": null, "GELOESCHT1": null, "ABSCHLEPP": 0}, "geometry": {"type": "Point", "coordinates": [8.533500007043717, 47.384228695842815]}}, {"id": "212", "type": "Feature", "properties": {"ADRESSE": "Sihlquai 295", "GEBUEHRENP": 0, "ZEIT_BEWIT": 0, "FK_FAHRZEU": 9, "ANZ_PP": 20, "FK_PFOSTEN": 1, "UNT_ERZ": 0, "FOTO": "20190920094356.jpg", "BEMERKUNG": null, "EINGEFUEGT": "2015-01-01", "STATUS": 0, "GELOESCHT_": null, "GELOESCHT1": null, "ABSCHLEPP": 0}, "geometry": {"type": "Point", "coordinates": [8.52664746883961, 47.38912167041837]}}, {"id": "213", "type": "Feature", "properties": {"ADRESSE": "Baumgasse 2", "GEBUEHRENP": 0, "ZEIT_BEWIT": 0, "FK_FAHRZEU": 9, "ANZ_PP": 58, "FK_PFOSTEN": 1, "UNT_ERZ": 1, "FOTO": "20190423110455.jpg", "BEMERKUNG": null, "EINGEFUEGT": "2015-01-01", "STATUS": 0, "GELOESCHT_": null, "GELOESCHT1": null, "ABSCHLEPP": 0}, "geometry": {"type": "Point", "coordinates": [8.53548711495564, 47.38206173418055]}}, {"id": "214", "type": "Feature", "properties": {"ADRESSE": "Hohlstrasse 539", "GEBUEHRENP": 0, "ZEIT_BEWIT": 0, "FK_FAHRZEU": 9, "ANZ_PP": 12, "FK_PFOSTEN": 0, "UNT_ERZ": 1, "FOTO": "20190906104425.jpg", "BEMERKUNG": null, "EINGEFUEGT": "2015-01-01", "STATUS": 0, "GELOESCHT_": null, "GELOESCHT1": null, "ABSCHLEPP": 0}, "geometry": {"type": "Point", "coordinates": [8.49172336621224, 47.38993114042117]}}, {"id": "215", "type": "Feature", "properties": {"ADRESSE": "Duttweilerstrasse 3c", "GEBUEHRENP": 0, "ZEIT_BEWIT": 0, "FK_FAHRZEU": 9, "ANZ_PP": 508, "FK_PFOSTEN": 9, "UNT_ERZ": 0, "FOTO": "20190925100349.jpg", "BEMERKUNG": "beim Toni Areal", "EINGEFUEGT": "2015-01-01", "STATUS": 0, "GELOESCHT_": null, "GELOESCHT1": null, "ABSCHLEPP": 0}, "geometry": {"type": "Point", "coordinates": [8.512656124460623, 47.39067894399341]}}, {"id": "216", "type": "Feature", "properties": {"ADRESSE": "F\u00f6rrlibuckstrasse 105", "GEBUEHRENP": 0, "ZEIT_BEWIT": 0, "FK_FAHRZEU": 2, "ANZ_PP": 12, "FK_PFOSTEN": 0, "UNT_ERZ": 0, "FOTO": "20190925110821.jpg", "BEMERKUNG": null, "EINGEFUEGT": "2015-01-01", "STATUS": 0, "GELOESCHT_": null, "GELOESCHT1": null, "ABSCHLEPP": 0}, "geometry": {"type": "Point", "coordinates": [8.513218182047344, 47.39147362143116]}}, {"id": "217", "type": "Feature", "properties": {"ADRESSE": "Hardturmstrasse 8", "GEBUEHRENP": 0, "ZEIT_BEWIT": 0, "FK_FAHRZEU": 2, "ANZ_PP": 10, "FK_PFOSTEN": 0, "UNT_ERZ": 1, "FOTO": "20190925115706.jpg", "BEMERKUNG": "unterhalb der Rampe, daher \u00fcberdacht", "EINGEFUEGT": "2015-01-01", "STATUS": 0, "GELOESCHT_": null, "GELOESCHT1": null, "ABSCHLEPP": 0}, "geometry": {"type": "Point", "coordinates": [8.521654923868587, 47.39098531760824]}}, {"id": "218", "type": "Feature", "properties": {"ADRESSE": "Hardstrasse 312", "GEBUEHRENP": 0, "ZEIT_BEWIT": 0, "FK_FAHRZEU": 9, "ANZ_PP": 22, "FK_PFOSTEN": 2, "UNT_ERZ": 1, "FOTO": "20190925115001.jpg", "BEMERKUNG": "unter Br\u00fccke, daher \u00fcberdacht", "EINGEFUEGT": "2015-01-01", "STATUS": 0, "GELOESCHT_": null, "GELOESCHT1": null, "ABSCHLEPP": 0}, "geometry": {"type": "Point", "coordinates": [8.521861241609395, 47.38997207707107]}}, {"id": "219", "type": "Feature", "properties": {"ADRESSE": "Wolfgang-Pauli-Strasse 15", "GEBUEHRENP": 0, "ZEIT_BEWIT": 0, "FK_FAHRZEU": 1, "ANZ_PP": 20, "FK_PFOSTEN": 2, "UNT_ERZ": 1, "FOTO": "20191206143551.jpg", "BEMERKUNG": "Bushaltestelle Linie 80 Ri Altstetten", "EINGEFUEGT": "2015-01-01", "STATUS": 0, "GELOESCHT_": null, "GELOESCHT1": null, "ABSCHLEPP": 0}, "geometry": {"type": "Point", "coordinates": [8.507667822621931, 47.40873066065178]}}, {"id": "220", "type": "Feature", "properties": {"ADRESSE": "Auguste-Piccard-Hof 1", "GEBUEHRENP": 0, "ZEIT_BEWIT": 0, "FK_FAHRZEU": 9, "ANZ_PP": 35, "FK_PFOSTEN": 7, "UNT_ERZ": 1, "FOTO": "20191206143350.jpg", "BEMERKUNG": null, "EINGEFUEGT": "2015-01-01", "STATUS": 0, "GELOESCHT_": null, "GELOESCHT1": null, "ABSCHLEPP": 0}, "geometry": {"type": "Point", "coordinates": [8.508313083016274, 47.40860914138298]}}, {"id": "221", "type": "Feature", "properties": {"ADRESSE": "Motorenstrasse 11", "GEBUEHRENP": 0, "ZEIT_BEWIT": 0, "FK_FAHRZEU": 9, "ANZ_PP": 8, "FK_PFOSTEN": 1, "UNT_ERZ": 1, "FOTO": "20190423143400.jpg", "BEMERKUNG": null, "EINGEFUEGT": "2015-01-01", "STATUS": 0, "GELOESCHT_": null, "GELOESCHT1": null, "ABSCHLEPP": 0}, "geometry": {"type": "Point", "coordinates": [8.529002516555805, 47.38508399040339]}}, {"id": "222", "type": "Feature", "properties": {"ADRESSE": "Motorenstrasse 15", "GEBUEHRENP": 0, "ZEIT_BEWIT": 0, "FK_FAHRZEU": 9, "ANZ_PP": 6, "FK_PFOSTEN": 1, "UNT_ERZ": 1, "FOTO": "20190423143340.jpg", "BEMERKUNG": null, "EINGEFUEGT": "2015-01-01", "STATUS": 0, "GELOESCHT_": null, "GELOESCHT1": null, "ABSCHLEPP": 0}, "geometry": {"type": "Point", "coordinates": [8.528834922199188, 47.38483996089815]}}, {"id": "223", "type": "Feature", "properties": {"ADRESSE": "Hardturmstrasse 130c", "GEBUEHRENP": 0, "ZEIT_BEWIT": 0, "FK_FAHRZEU": 9, "ANZ_PP": 16, "FK_PFOSTEN": 1, "UNT_ERZ": 0, "FOTO": "20190925105158.jpg", "BEMERKUNG": "unter Gleisen, daher \u00fcberdacht", "EINGEFUEGT": "2015-01-01", "STATUS": 0, "GELOESCHT_": null, "GELOESCHT1": null, "ABSCHLEPP": 0}, "geometry": {"type": "Point", "coordinates": [8.512477636616229, 47.39336720831582]}}, {"id": "224", "type": "Feature", "properties": {"ADRESSE": "Bahnhaldenstrasse 5", "GEBUEHRENP": 0, "ZEIT_BEWIT": 0, "FK_FAHRZEU": 1, "ANZ_PP": 6, "FK_PFOSTEN": 0, "UNT_ERZ": 0, "FOTO": "20191023082757.jpg", "BEMERKUNG": null, "EINGEFUEGT": "2019-10-23", "STATUS": 0, "GELOESCHT_": null, "GELOESCHT1": null, "ABSCHLEPP": 0}, "geometry": {"type": "Point", "coordinates": [8.547043453704939, 47.41912216369241]}}, {"id": "225", "type": "Feature", "properties": {"ADRESSE": "Hardplatz 15", "GEBUEHRENP": 0, "ZEIT_BEWIT": 0, "FK_FAHRZEU": 1, "ANZ_PP": 20, "FK_PFOSTEN": 2, "UNT_ERZ": 1, "FOTO": "20190730110742.jpg", "BEMERKUNG": null, "EINGEFUEGT": "2017-12-18", "STATUS": 0, "GELOESCHT_": null, "GELOESCHT1": null, "ABSCHLEPP": 0}, "geometry": {"type": "Point", "coordinates": [8.514199824723924, 47.382585980190804]}}, {"id": "226", "type": "Feature", "properties": {"ADRESSE": "Eyhof 18", "GEBUEHRENP": 0, "ZEIT_BEWIT": 0, "FK_FAHRZEU": 1, "ANZ_PP": 6, "FK_PFOSTEN": 0, "UNT_ERZ": 0, "FOTO": "20190828131809.jpg", "BEMERKUNG": null, "EINGEFUEGT": "2018-08-03", "STATUS": 0, "GELOESCHT_": null, "GELOESCHT1": null, "ABSCHLEPP": 0}, "geometry": {"type": "Point", "coordinates": [8.489792613059588, 47.3718740361816]}}, {"id": "227", "type": "Feature", "properties": {"ADRESSE": "Eyhof 16", "GEBUEHRENP": 0, "ZEIT_BEWIT": 0, "FK_FAHRZEU": 1, "ANZ_PP": 6, "FK_PFOSTEN": 0, "UNT_ERZ": 0, "FOTO": "20190828131840.jpg", "BEMERKUNG": null, "EINGEFUEGT": "2018-08-03", "STATUS": 0, "GELOESCHT_": null, "GELOESCHT1": null, "ABSCHLEPP": 0}, "geometry": {"type": "Point", "coordinates": [8.489946021862323, 47.37174776456079]}}, {"id": "228", "type": "Feature", "properties": {"ADRESSE": "Sihlamtsstrasse 4", "GEBUEHRENP": 0, "ZEIT_BEWIT": 0, "FK_FAHRZEU": 1, "ANZ_PP": 3, "FK_PFOSTEN": 0, "UNT_ERZ": 0, "FOTO": "20190509114422.jpg", "BEMERKUNG": null, "EINGEFUEGT": "2019-05-09", "STATUS": 0, "GELOESCHT_": null, "GELOESCHT1": null, "ABSCHLEPP": 0}, "geometry": {"type": "Point", "coordinates": [8.531628891244932, 47.37031514349146]}}, {"id": "229", "type": "Feature", "properties": {"ADRESSE": "Delphinstrasse 6", "GEBUEHRENP": 0, "ZEIT_BEWIT": 0, "FK_FAHRZEU": 1, "ANZ_PP": 5, "FK_PFOSTEN": 0, "UNT_ERZ": 0, "FOTO": "20190516141754.jpg", "BEMERKUNG": null, "EINGEFUEGT": "2019-05-16", "STATUS": 0, "GELOESCHT_": null, "GELOESCHT1": null, "ABSCHLEPP": 0}, "geometry": {"type": "Point", "coordinates": [8.552215437521102, 47.363821367813664]}}, {"id": "230", "type": "Feature", "properties": {"ADRESSE": "Entlisbergstrasse 54", "GEBUEHRENP": 0, "ZEIT_BEWIT": 0, "FK_FAHRZEU": 9, "ANZ_PP": 4, "FK_PFOSTEN": 0, "UNT_ERZ": 0, "FOTO": "20190709083048.jpg", "BEMERKUNG": null, "EINGEFUEGT": "2019-07-09", "STATUS": 0, "GELOESCHT_": null, "GELOESCHT1": null, "ABSCHLEPP": 0}, "geometry": {"type": "Point", "coordinates": [8.524907279122804, 47.335853482521046]}}, {"id": "231", "type": "Feature", "properties": {"ADRESSE": "Moosstrasse 30", "GEBUEHRENP": 0, "ZEIT_BEWIT": 0, "FK_FAHRZEU": 1, "ANZ_PP": 2, "FK_PFOSTEN": 0, "UNT_ERZ": 0, "FOTO": "20190709140928.jpg", "BEMERKUNG": null, "EINGEFUEGT": "2019-07-09", "STATUS": 0, "GELOESCHT_": null, "GELOESCHT1": null, "ABSCHLEPP": 0}, "geometry": {"type": "Point", "coordinates": [8.528736442611264, 47.338054415224626]}}, {"id": "232", "type": "Feature", "properties": {"ADRESSE": "Moosstrasse 26", "GEBUEHRENP": 0, "ZEIT_BEWIT": 0, "FK_FAHRZEU": 1, "ANZ_PP": 3, "FK_PFOSTEN": 0, "UNT_ERZ": 0, "FOTO": "20190709141043.jpg", "BEMERKUNG": null, "EINGEFUEGT": "2019-07-09", "STATUS": 0, "GELOESCHT_": null, "GELOESCHT1": null, "ABSCHLEPP": 0}, "geometry": {"type": "Point", "coordinates": [8.52867754466054, 47.338402750591136]}}, {"id": "233", "type": "Feature", "properties": {"ADRESSE": "Schweigmatt 35", "GEBUEHRENP": 0, "ZEIT_BEWIT": 0, "FK_FAHRZEU": 1, "ANZ_PP": 8, "FK_PFOSTEN": 0, "UNT_ERZ": 0, "FOTO": "20190821103506.jpg", "BEMERKUNG": null, "EINGEFUEGT": "2019-08-21", "STATUS": 0, "GELOESCHT_": null, "GELOESCHT1": null, "ABSCHLEPP": 0}, "geometry": {"type": "Point", "coordinates": [8.501185302200911, 47.366197792093274]}}, {"id": "234", "type": "Feature", "properties": {"ADRESSE": "Winterthurerstrasse 260", "GEBUEHRENP": 0, "ZEIT_BEWIT": 0, "FK_FAHRZEU": 9, "ANZ_PP": 40, "FK_PFOSTEN": 0, "UNT_ERZ": 0, "FOTO": "20191025113214.jpg", "BEMERKUNG": null, "EINGEFUEGT": "2019-10-25", "STATUS": 0, "GELOESCHT_": null, "GELOESCHT1": null, "ABSCHLEPP": 0}, "geometry": {"type": "Point", "coordinates": [8.55104996616551, 47.40080992772415]}}, {"id": "235", "type": "Feature", "properties": {"ADRESSE": "Winterthurerstrasse 204c", "GEBUEHRENP": 0, "ZEIT_BEWIT": 0, "FK_FAHRZEU": 9, "ANZ_PP": 8, "FK_PFOSTEN": 0, "UNT_ERZ": 0, "FOTO": "20191025113502.jpg", "BEMERKUNG": null, "EINGEFUEGT": "2019-10-25", "STATUS": 0, "GELOESCHT_": null, "GELOESCHT1": null, "ABSCHLEPP": 0}, "geometry": {"type": "Point", "coordinates": [8.549838950687896, 47.39978310217721]}}, {"id": "236", "type": "Feature", "properties": {"ADRESSE": "Tramstrasse 133", "GEBUEHRENP": 0, "ZEIT_BEWIT": 0, "FK_FAHRZEU": 9, "ANZ_PP": 4, "FK_PFOSTEN": 0, "UNT_ERZ": 0, "FOTO": "20191025130115.jpg", "BEMERKUNG": null, "EINGEFUEGT": "2019-10-25", "STATUS": 0, "GELOESCHT_": null, "GELOESCHT1": null, "ABSCHLEPP": 0}, "geometry": {"type": "Point", "coordinates": [8.560044984252556, 47.40834514991179]}}, {"id": "237", "type": "Feature", "properties": {"ADRESSE": "Am Glattbogen 158", "GEBUEHRENP": 0, "ZEIT_BEWIT": 0, "FK_FAHRZEU": 1, "ANZ_PP": 7, "FK_PFOSTEN": 0, "UNT_ERZ": 0, "FOTO": "20191025132535.jpg", "BEMERKUNG": null, "EINGEFUEGT": "2019-10-25", "STATUS": 0, "GELOESCHT_": null, "GELOESCHT1": null, "ABSCHLEPP": 0}, "geometry": {"type": "Point", "coordinates": [8.567242420182135, 47.411693047990425]}}, {"id": "238", "type": "Feature", "properties": {"ADRESSE": "Am Glattbogen 158", "GEBUEHRENP": 0, "ZEIT_BEWIT": 0, "FK_FAHRZEU": 1, "ANZ_PP": 20, "FK_PFOSTEN": 0, "UNT_ERZ": 0, "FOTO": "20191025132609.jpg", "BEMERKUNG": null, "EINGEFUEGT": "2019-10-25", "STATUS": 0, "GELOESCHT_": null, "GELOESCHT1": null, "ABSCHLEPP": 0}, "geometry": {"type": "Point", "coordinates": [8.567111511077698, 47.41170450069812]}}, {"id": "239", "type": "Feature", "properties": {"ADRESSE": "Am Glattbogen 172", "GEBUEHRENP": 0, "ZEIT_BEWIT": 0, "FK_FAHRZEU": 1, "ANZ_PP": 10, "FK_PFOSTEN": 0, "UNT_ERZ": 0, "FOTO": "20191025132701.jpg", "BEMERKUNG": null, "EINGEFUEGT": "2019-10-25", "STATUS": 0, "GELOESCHT_": null, "GELOESCHT1": null, "ABSCHLEPP": 0}, "geometry": {"type": "Point", "coordinates": [8.56694403326188, 47.41122792970781]}}, {"id": "240", "type": "Feature", "properties": {"ADRESSE": "Thurgauerstrasse 30a", "GEBUEHRENP": 0, "ZEIT_BEWIT": 0, "FK_FAHRZEU": 9, "ANZ_PP": 42, "FK_PFOSTEN": 0, "UNT_ERZ": 0, "FOTO": "20191025140314.jpg", "BEMERKUNG": null, "EINGEFUEGT": "2019-10-25", "STATUS": 0, "GELOESCHT_": null, "GELOESCHT1": null, "ABSCHLEPP": 0}, "geometry": {"type": "Point", "coordinates": [8.55105965982644, 47.41324884589112]}}, {"id": "241", "type": "Feature", "properties": {"ADRESSE": "Aemtlerstrasse 23", "GEBUEHRENP": 0, "ZEIT_BEWIT": 0, "FK_FAHRZEU": 1, "ANZ_PP": 20, "FK_PFOSTEN": 7, "UNT_ERZ": 0, "FOTO": null, "BEMERKUNG": null, "EINGEFUEGT": "2020-01-14", "STATUS": 0, "GELOESCHT_": null, "GELOESCHT1": null, "ABSCHLEPP": 0}, "geometry": {"type": "Point", "coordinates": [8.515614219558525, 47.371693803829224]}}, {"id": "242", "type": "Feature", "properties": {"ADRESSE": "Viaduktstrasse 73", "GEBUEHRENP": 0, "ZEIT_BEWIT": 0, "FK_FAHRZEU": 9, "ANZ_PP": 32, "FK_PFOSTEN": 1, "UNT_ERZ": 0, "FOTO": "20190925091732.jpg", "BEMERKUNG": "unter Gleisen, aber nicht vollst\u00e4ndig regengesch\u00fctzt", "EINGEFUEGT": "2015-01-01", "STATUS": 0, "GELOESCHT_": null, "GELOESCHT1": null, "ABSCHLEPP": 0},